turismoi_slug_place|turismoi_city_name|turismoi_country|turismoi_latitude|turismoi_longitude|travelC_provider_code|travelC_city_name|travelC_country|travelC_latitude|travelC_longitude
acapulco-de-juarez|Acapulco de Juárez|MEXICO (MX)|NULL|NULL|ACA|Acapulco|Mexico (MX)|16.863611|-99.8825
barcelona|Barcelona|SPAIN (ES)|41.385|2.1734|BCN|Barcelona|Spain (ES)|41.385064|2.1734035
ciudad-de-buenos-aires|Ciudad de Buenos Aires|ARGENTINA (AR)|NULL|NULL|BUE|Buenos Aires|Argentina (AR)|-34.603333|-58.381667
santo-domingo-tehuantepec|Santo Domingo Tehuantepec|MEXICO (MX)|NULL|NULL|TEH-77|Tehuantepec|Mexico (MX)|16.3226994|-95.24232999999998
ica|Ica|PERU (PE)|-14.064|-75.7291|ICA|Ica|Peru (PE)|-14.066667|-75.733333
johannesburgo|Johannesburgo|SOUTH AFRICA (ZA)|-26.203209|28.041145|JHG|Johannesburg|South Africa (ZA)|-26.204103|28.047305
lima|Lima|PERU (PE)|-12.046|-77.0307|LIM|Lima|Peru (PE)|-12.043333|-77.028333
la-paz-26016|La Paz|BOLIVIA (BO)|NULL|NULL|LPB|La Paz |Bolivia (BO)|-16.5|-68.15
madrid|Madrid|SPAIN (ES)|40.4167|-3.7037|MAD|Madrid|Spain (ES)|40.416775|-3.7037902
quito|Quito|ECUADOR (EC)|-0.220299|-78.51171|UIO|Quito|Ecuador (EC)|-0.233333|-78.516667
jaen|Jaén|PERU (PE)|-5.70876|-78.8077|809|Jaén |Peru (PE)|-5.709441|-78.798618
asuncion|Asunción|PARAGUAY (PY)|NULL|NULL|ASU|Asunción|Paraguay (PY)|-25.30606980862828|-57.60477866859958
barranquilla|Barranquilla|COLOMBIA (CO)|11.006632|-74.81318|BAQ|Barranquilla|Colombia (CO)|10.963889|-74.796389
little-belize|Little Belize|BELIZE (BZ)|NULL|NULL|BZE|Belize|Belize (BZ)|17.504722|-88.186667
medellin|Medellín|COLOMBIA (CO)|NULL|NULL|MDE|Medellin|Colombia (CO)|6.230833|-75.590556
mar-del-plata|Mar del Plata|ARGENTINA (AR)|NULL|NULL|MDQ|Mar del Plata|Argentina (AR)|-38.0|-57.55
monterrey|Monterrey|MEXICO (MX)|25.66761|-100.31556|MON|Monterrey|Mexico (MX)|25.675575438448007|-100.31664177054398
la-palma|La Palma|SPAIN (ES)|NULL|NULL|SPC|La Palma|Spain (ES)|28.683989|-17.764575
sevilla|Sevilla|SPAIN (ES)|37.389|-5.9844|SVQ|Sevilla|Spain (ES)|37.388681389440265|-5.995313277219566
ushuaia|Ushuaia|ARGENTINA (AR)|-54.691742|-68.24462|USH|Ushuaia|Argentina (AR)|-54.8|-68.3
valencia|Valencia|SPAIN (ES)|39.4699|-0.3762|VLC|Valencia|Spain (ES)|39.4699075|-0.3762881
tarma|Tarma|PERU (PE)|-11.4201|-75.6876|TAR-1|Tarma|Peru (PE)|-11.419335|-75.688949
bilbao|Bilbao|SPAIN (ES)|43.263|-2.9349|BIO-99|Bilbao|Spain (ES)|43.256944|-2.923611
palma-de-mallorca|Palma de Mallorca|SPAIN (ES)|39.5696|2.6501|LOR-E|Lorca|Spain (ES)|37.67114861578479|-1.6995893797228234
entre-rios|Entre Ríos|ARGENTINA (AR)|NULL|NULL|TOUENT|Entre Ríos|Argentina (AR)|-32.0477|NULL
limon|Limón|COSTA RICA (CR)|NULL|NULL|510|Limon|Costa Rica (CR)|9.963116|-83.025276
almirante|Almirante|PANAMA (PA)|9.304587|-82.4122|671|Almirante|Panama (PA)|9.297918|-82.421102
jauja|Jauja|PERU (PE)|-11.7753|-75.5|923|Jauja|Peru (PE)|-11.780624|-75.486903
albacete|Albacete|SPAIN (ES)|38.9944|-1.8585|ABC|Albacete|Spain (ES)|38.994349|-1.858542
aguascalientes|Aguascalientes|MEXICO (MX)|21.880852|-102.29601|AGU|Aguascalientes|Mexico (MX)|21.878990179023532|-102.29341674785229
ciudad-altamirano|Ciudad Altamirano|MEXICO (MX)|NULL|NULL|ALT|Alta|Norway (NO)|69.976667|23.295833
antofagasta|Antofagasta|CHILE (CL)|-23.651777|-70.396736|ANF|Antofagasta|Chile (CL)|-23.650928|-70.397502
arequipa|Arequipa|PERU (PE)|-16.3988|-71.5369|AQP|Arequipa|Peru (PE)|-16.383333|-71.533333
arica|Arica|CHILE (CL)|-18.4782|-70.3125|ARI|Arica|Chile (CL)|-18.478253|-70.312599
san-pedro-de-atacama|San Pedro de Atacama|CHILE (CL)|NULL|NULL|AT4|San Pedro de Atacama|Chile (CL)|-22.908707|-68.199716
san-carlos-de-bariloche|San Carlos de Bariloche|ARGENTINA (AR)|NULL|NULL|BCH|San Carlos de Bariloche|Argentina (AR)|-41.13936457644674|-71.31362915039064
badajoz|Badajoz|SPAIN (ES)|38.8794|-6.9706|BJZ|Badajoz|Spain (ES)|38.879449|-6.970654
cochabamba|Cochabamba|BOLIVIA (BO)|-17.388485|-66.15469|CBB|Cochabamba|Bolivia (BO)|-17.38|-66.17
cuenca|Cuenca|SPAIN (ES)|40.0703|-2.1374|CCA|Cuenca|Spain (ES)|40.070392|-2.137416
colonia-del-sacramento|Colonia del Sacramento|URUGUAY (UY)|NULL|NULL|CDT|Colonia del Sacramento|Uruguay (UY)|-34.460719|-57.83391
chiclayo|Chiclayo|PERU (PE)|-6.76034|-79.835|CIX|Chiclayo|Peru (PE)|-6.776597|-79.844298
cajamarca|Cajamarca|PERU (PE)|-7.15704|-78.5175|CJA|Cajamarca|Peru (PE)|-7.164444|-78.510556
calama|Calama|CHILE (CL)|-22.541021|-68.82425|CJC|Calama|Chile (CL)|-22.454392|-68.929382
cali|Cali|COLOMBIA (CO)|3.396812|-76.57563|CLO|Cali|Colombia (CO)|3.420556|-76.522222
camaguey|Camagüey|CUBA (CU)|NULL|NULL|CMG|Camagüey|Cuba (CU)|21.392603|-77.905318
cordoba|Córdoba|ARGENTINA (AR)|NULL|NULL|CRD|Córdoba|Argentina (AR)|-31.416667|-64.183333
ciudad-real|Ciudad Real|SPAIN (ES)|38.9831|-3.9671|CRE|Ciudad Real|Spain (ES)|38.984829|-3.927378
cartagena|Cartagena de Indias|COLOMBIA (CO)|10.423437|-75.54946|CTG|Cartagena de Indias|Colombia (CO)|10.4|-75.5
cucuta|Cúcuta|COLOMBIA (CO)|NULL|NULL|CUC|Cucuta|Colombia (CO)|7.9075|-72.504722
cancun|Cancún|MEXICO (MX)|NULL|NULL|CUN|Cancun|Mexico (MX)|21.149619289931536|-86.80478630279819
cuernavaca|Cuernavaca|MEXICO (MX)|18.921225|-99.23486|CVJ|Cuernavaca|Mexico (MX)|18.924209|-99.221566
ensenada|Ensenada|MEXICO (MX)|31.837383|-116.63006|ENS|Ensenada|Mexico (MX)|31.861713578881748|-116.62135372601914
puerto-escondido|Puerto Escondido|MEXICO (MX)|NULL|NULL|ESC|Puerto Escondido|Mexico (MX)|15.862386084399816|-97.07082534466312
esmeraldas-ciudad|Esmeraldas(Ciudad)|ECUADOR (EC)|NULL|NULL|ESM|Esmeraldas|Ecuador (EC)|0.9681789|-79.6517202
formentera|Formentera|SPAIN (ES)|38.71101|1.469704|FOR|Formentera|Spain (ES)|38.69603499076058|1.465160766541203
guanajuato|Guanajuato|MEXICO (MX)|21.01812|-101.25821|GUO|Guanajuato|Mexico (MX)|21.019015|-101.257359
guayaquil|Guayaquil|ECUADOR (EC)|-2.160198|-79.94082|GYE|Guayaquil|Ecuador (EC)|-2.183333|-79.883333
huesca|Huesca|SPAIN (ES)|42.1318|-0.4078|HUS|Huesca|Spain (ES)|42.131845|-0.407806
iquitos|Iquitos|PERU (PE)|-3.74926|-73.2443|IQT|Iquitos|Peru (PE)|-3.743673|-73.251633
jaen|Jaén|SPAIN (ES)|37.7795|-3.7849|JEN|Jaén|Spain (ES)|37.779594|-3.784906
chihuahua|Chihuahua|MEXICO (MX)|29.001558|-106.23267|JUA|Chihuahua|Mexico (MX)|28.66524082703519|-106.06965169994963
jujuy|Jujuy|ARGENTINA (AR)|NULL|NULL|JUJ|Jujuy|Argentina (AR)|-24.185786|-65.299477
vina-del-mar|Viña Del Mar|CHILE (CL)|-33.0247|-71.5523|KNA|Viña del Mar|Chile (CL)|-33.015348|-71.550028
los-angeles|Los Ángeles|CHILE (CL)|NULL|NULL|LGS|Los Ángeles|Chile (CL)|-37.462916|-72.361225
los-mochis|Los Mochis|MEXICO (MX)|NULL|NULL|LMM|Los Mochis|Mexico (MX)|25.790466|-108.985882
loja|Loja|ECUADOR (EC)|-3.998196|-79.20203|LOH|Loja|Ecuador (EC)|-4.0078909|-79.21127690000003
loreto|Loreto|MEXICO (MX)|25.93742|-111.299225|LOR|Loreto|Mexico (MX)|26.012778|-111.343333
san-luis|San Luis|ARGENTINA (AR)|NULL|NULL|LUQ|San Luis|Argentina (AR)|-33.301727|-66.337752
cadiz|Cádiz|SPAIN (ES)|36.527|-6.2884|LUZ|Cadiz|Spain (ES)|36.527061|-6.288596
mendoza|Mendoza|ARGENTINA (AR)|-32.890343|-68.84093|MEZ|Mendoza|Argentina (AR)|-32.89068924310892|-68.83942262098383
monteverde|Monteverde|COSTA RICA (CR)|10.306625|-84.81133|MNT|Monteverde|Costa Rica (CR)|10.314256|-84.825022
morelia|Morelia|MEXICO (MX)|19.697393|-101.207275|MOR|Morelia|Mexico (MX)|19.70829156809556|-101.19300334723606
manta|Manta|ECUADOR (EC)|-0.95376|-80.71753|MT5|Manta|Ecuador (EC)|-0.950022|-80.7162
monteria|Montería|COLOMBIA (CO)|NULL|NULL|MTI|Monteria|Colombia (CO)|8.75|-75.883333
montevideo|Montevideo|URUGUAY (UY)|-34.9065|-56.19976|MVD|Montevideo|Uruguay (UY)|-34.883611|-56.181944
manizales|Manizales|COLOMBIA (CO)|5.078494|-75.49424|MZL|Manizales|Colombia (CO)|5.050201209841063|-75.49077115188713
neiva|Neiva|COLOMBIA (CO)|3.011458|-75.33997|NEI|Neiva|Colombia (CO)|2.998611|-75.304444
oaxaca|Oaxaca|MEXICO (MX)|17.06117|-96.725464|OAX|Oaxaca|Mexico (MX)|17.062036080716222|-96.7236328125
ernesto-cordoba-campos|Ernesto Córdoba Campos|PANAMA (PA)|NULL|NULL|ODB|Córdoba |Spain (ES)|37.8881751|-4.7793835
punta-del-este|Punta del Este|URUGUAY (UY)|NULL|NULL|PDP|Punta del Este|Uruguay (UY)|-34.966667|-54.95
piura|Piura|PERU (PE)|-5.19711|-80.6267|PIU|Piura|Peru (PE)|-5.2|-80.633333
placencia|Placencia|BELIZE (BZ)|16.5155|-88.3666|PLJ|Placencia|Belize (BZ)|16.52116|-88.37128
puerto-madryn|Puerto Madryn|ARGENTINA (AR)|NULL|NULL|PMY|Puerto Madryn|Argentina (AR)|-42.766667|-65.05
puerto-natales|Puerto Natales|CHILE (CL)|NULL|NULL|PNT|Puerto Natales|Chile (CL)|-51.730894|-72.497741
san-felipe-de-puerto-plata|San Felipe de Puerto Plata|DOMINICAN REPUBLIC (DO)|NULL|NULL|POP|Puerto Plata|Dominican Republic (DO)|19.8|-70.683333
puerto-penasco|Puerto Peñasco|MEXICO (MX)|NULL|NULL|PPE|Puerto Peñasco|Mexico (MX)|31.326822|-113.531184
pasto|Pasto|COLOMBIA (CO)|NULL|NULL|PSO|Pasto|Colombia (CO)|1.207778|-77.277222
puebla|Puebla|MEXICO (MX)|19.008434|-98.17494|PUE|Puebla|Mexico (MX)|19.042898419084807|-98.19639392724905
punta-cana|Punta Cana|DOMINICAN REPUBLIC (DO)|NULL|NULL|PUJ|Punta Cana|Dominican Republic (DO)|18.58|-68.41
punta-arenas|Punta Arenas|CHILE (CL)|-53.1638|-70.917|PUQ|Punta Arenas|Chile (CL)|-53.163833|-70.917068
puerto-varas|Puerto Varas|CHILE (CL)|NULL|NULL|PUX|Puerto Varas|Chile (CL)|-41.3167|-72.9833
puerto-vallarta|Puerto Vallarta|MEXICO (MX)|NULL|NULL|PVR|Puerto Vallarta|Mexico (MX)|20.615224819553134|-105.23209574988083
queretaro|Querétaro|MEXICO (MX)|NULL|NULL|QUE|Queretaro|Mexico (MX)|20.5875|-100.392778
rosario|Rosario|ARGENTINA (AR)|-32.947605|-60.699333|RO6|Rosario|Argentina (AR)|-32.95|-60.666667
la-romana|La Romana|DOMINICAN REPUBLIC (DO)|NULL|NULL|ROM|La Romana|Dominican Republic (DO)|18.43|-68.97
saltillo|Saltillo|MEXICO (MX)|25.42157|-101.00006|SAI|Saltillo|Mexico (MX)|25.426724|-100.995425
la-coruna|La Coruña|SPAIN (ES)|43.3623|-8.4115|SCQ|A Coruña|Spain (ES)|43.362344|-8.41154
salamanca|Salamanca|SPAIN (ES)|40.9701|-5.6635|SLM|Salamanca|Spain (ES)|40.9701039|-5.6635397
santa-marta|Santa Marta|COLOMBIA (CO)|NULL|NULL|SMC|Santa Marta|Colombia (CO)|11.221380123161254|-74.10654961290386
salinas|Salinas|ECUADOR (EC)|-2.203656|-80.92278|SNC|Salinas|Ecuador (EC)|-2.2068672695965557|-80.966458535695
soria|Soria|SPAIN (ES)|41.7665|-2.479|SOR|Soria|Spain (ES)|41.766667|-2.466667
san-ignacio|San Ignacio|BELIZE (BZ)|NULL|NULL|SQS|San Ignacio|Belize (BZ)|17.152279|-89.080023
tampico|Tampico|MEXICO (MX)|22.215221|-97.857285|TAM|Tampico|Mexico (MX)|22.21355779482083|-97.84586300849725
tumbes|Tumbes|PERU (PE)|-3.57075|-80.4596|TBP|Tumbes|Peru (PE)|-3.566667|-80.45
toluca-de-lerdo|Toluca de Lerdo|MEXICO (MX)|NULL|NULL|TCA|Toluca|Mexico (MX)|19.2925|-99.656944
tacna|Tacna|PERU (PE)|-18.0138|-70.2509|TCQ|Tacna|Peru (PE)|-18.055556|-70.248333
teruel|Teruel|SPAIN (ES)|40.3456|-1.1064|TER|Teruel|Spain (ES)|40.345688|-1.106434
tarija|Tarija|BOLIVIA (BO)|-21.53453|-64.732475|TJA|Tarija|Bolivia (BO)|-21.53|-64.73
toledo|Toledo|SPAIN (ES)|39.8628|-4.0273|TOL|Toledo|Spain (ES)|39.8628316|-4.0273231
torreon|Torreón|MEXICO (MX)|NULL|NULL|TOO|Torreón|Mexico (MX)|25.542844|-103.406786
tarapoto|Tarapoto|PERU (PE)|-6.48776|-76.3599|TPP|Tarapoto|Peru (PE)|-6.482478|-76.372689
trujillo|Trujillo|PERU (PE)|-8.11185|-79.0287|TRU|Trujillo|Peru (PE)|NULL|-79.0288
tucuman|Tucumán|ARGENTINA (AR)|NULL|NULL|TUC|Tucumán|Argentina (AR)|-26.817993843203773|-65.20895116866774
san-juan|San Juan|ARGENTINA (AR)|NULL|NULL|UAQ|San Juan|Argentina (AR)|-31.535107|-68.538594
veracruz|Veracruz|MEXICO (MX)|19.193975|-96.13552|VER|Veracruz|Mexico (MX)|19.173773|-96.13422409999998
villahermosa|Villahermosa|MEXICO (MX)|17.988585|-92.95504|VIA|Villahermosa|Mexico (MX)|17.991468255933825|-92.91599265341918
ciudad-victoria|Ciudad Victoria|MEXICO (MX)|NULL|NULL|VII|Ciudad Victoria|Mexico (MX)|23.747271410379057|-99.14491869895201
valladolid|Valladolid|SPAIN (ES)|41.6522|-4.7245|VLL|Valladolid|Spain (ES)|41.652251|-4.7245321
villavicencio|Villavicencio|COLOMBIA (CO)|4.14938|-73.63519|VVC|Villavicencio|Colombia (CO)|4.15|-73.633333
zacatecas|Zacatecas|MEXICO (MX)|22.774755|-102.57299|ZAC|Zacatecas|Mexico (MX)|22.770925|-102.583254
zamora|Zamora|SPAIN (ES)|41.5034|-5.7467|ZAM|Zamora|Spain (ES)|41.503471|-5.746788
temuco|Temuco|CHILE (CL)|-38.683083|-72.67313|ZCO|Temuco|Chile (CL)|-38.735902|-72.590374
osorno|Osorno|CHILE (CL)|-40.613823|-73.10409|ZOS|Osorno|Chile (CL)|-40.57619|-73.114947
pucon|Pucón|CHILE (CL)|-39.2722|-71.9776|ZPC|Pucon|Chile (CL)|-39.272254|-71.977628
bahia-blanca|Bahía Blanca|ARGENTINA (AR)|NULL|NULL|AR-1|Bahía Blanca|Argentina (AR)|-38.71526576615614|-62.29511897661723
tulancingo|Tulancingo|MEXICO (MX)|20.086622|-98.40577|PCH4|Tulancingo|Mexico (MX)|20.0719902|-98.36909220000001
ciudad-del-este|Ciudad del Este|PARAGUAY (PY)|NULL|NULL|AGT-1|Ciudad del Este|Paraguay (PY)|-25.5085286|-54.675323100000014
belmopan|Belmopán|BELIZE (BZ)|NULL|NULL|BCV-1|Belmopan|Belize (BZ)|17.2510114|-88.75902009999999
ciudad-obregon|Ciudad Obregón|MEXICO (MX)|NULL|NULL|CE2-1|Ciudad Obregón|Mexico (MX)|27.4827729|-109.93036699999999
navojoa|Navojoa|MEXICO (MX)|27.078121|-109.402725|CE2-2|Navojoa|Mexico (MX)|27.072757|-109.443749
el-calafate|El Calafate|ARGENTINA (AR)|NULL|NULL|CFE-1|El Calafate|Argentina (AR)|-50.333333|-72.283333
palenque|Palenque|MEXICO (MX)|17.54077|-92.030556|CIP-4|Palenque|Mexico (MX)|17.50987276061629|-91.98144710474924
david|David|PANAMA (PA)|8.407179|-82.42865|DAW-1|David|Panama (PA)|8.433333|-82.433333
liberia|Liberia|COSTA RICA (CR)|10.585932|-85.45078|GAN40|Liberia|Costa Rica (CR)|10.634596|-85.440675
almeria|Almería|SPAIN (ES)|37.1035|-2.3024|LEI-1|Almeria|Spain (ES)|36.840278|-2.468056
la-serena|La Serena|CHILE (CL)|-29.903|-71.2514|LSC-1|La Serena|Chile (CL)|-29.902669|-71.251937
guamuchil|Guamúchil|MEXICO (MX)|25.453436|-108.08344|NRV-1|Guam|Guam (GU)|13.4762824|144.75022279999996
orizaba|Orizaba|MEXICO (MX)|18.849121|-97.105225|OR2-1|Orizaba|Mexico (MX)|18.8504744|-97.10363960000001
tijuana|Tijuana|MEXICO (MX)|32.528725|-117.023155|TIJ-1|Tijuana|Mexico (MX)|32.504106354003895|-116.96529205019567
lanzarote|Lanzarote|SPAIN (ES)|NULL|NULL|ACE-10|Lanzarote|Spain (ES)|29.02615398405301|-13.638839721679688
aguas-calientes|Aguas Calientes|PERU (PE)|-13.1547|-72.5253|AGC-13|Aguas Calientes|Peru (PE)|-13.1547062|-72.52544119999999
alicante|Alicante|SPAIN (ES)|38.346|-0.4906|ALC-99|Alicante|Spain (ES)|38.34865705156157|-0.47790527343750006
avila|Ávila|SPAIN (ES)|40.6421|-4.6657|AVA-99|Avila|Spain (ES)|40.65|-4.683333
merida|Mérida|SPAIN (ES)|NULL|NULL|BJZ-90|Mérida |Spain (ES)|38.914296|-6.349197
burgos|Burgos|SPAIN (ES)|42.3439|-3.6969|BRG-99|Burgos|Spain (ES)|42.35|-3.706667
granada|Granada|SPAIN (ES)|37.1773|-3.5985|GRX-99|Granada|Spain (ES)|37.178056|-3.600833
guadalajara|Guadalajara|MEXICO (MX)|20.67702|-103.34703|GUA-10|Guadalajara|Mexico (MX)|20.666667|-103.35
huelva|Huelva|SPAIN (ES)|37.2614|-6.9447|HUE-99|Huelva|Spain (ES)|37.25|-6.95
leon|León|SPAIN (ES)|42.5987|-5.567|LEO-99|Leon |Spain (ES)|42.605556|-5.57
la-rioja|Logroño|SPAIN (ES)|42.4653|-2.4801|LOG-99|Logroño|Spain (ES)|42.462719|-2.444985
tarifa|Tarifa|SPAIN (ES)|37.58677|-2.418713|LUZ-48|Tarifa|Spain (ES)|36.014321|-5.60445
malaga|Málaga|SPAIN (ES)|36.7212|-4.4213|MAL-10|Malaga|Spain (ES)|36.721261|-4.4212655
valladolid|Valladolid|MEXICO (MX)|20.638388|-88.10842|MER-60|Valladolid |Mexico (MX)|20.68964|-88.202249
murcia|Murcia|SPAIN (ES)|37.9922|-1.1306|MJV-10|Murcia|Spain (ES)|37.986111|-1.130278
oviedo|Oviedo|SPAIN (ES)|43.3619|-5.8493|OVD-10|Oviedo|Spain (ES)|43.36|NULL
navarra|Pamplona|SPAIN (ES)|42.8125|-1.6457|PNA-99|Pamplona|Spain (ES)|42.81901410374522|-1.644086837768555
rio-negro|Río Negro|ARGENTINA (AR)|NULL|NULL|RNG-99|Río Negro|Argentina (AR)|-41.15|-71.3
tarragona|Tarragona|SPAIN (ES)|41.1188|1.2444|SAL-80|Tarragona|Spain (ES)|41.118883|1.244491
satipo|Satipo|PERU (PE)|-11.254|-74.6366|SAT-12|Satipo|Peru (PE)|-11.255548|-74.639433
santiago-de-compostela|Santiago de Compostela|SPAIN (ES)|NULL|NULL|SCQ-99|Santiago de Compostela|Spain (ES)|42.8782132|-8.5448445
santander|Santander|SPAIN (ES)|43.4623|-3.8099|SDR-99|Santander|Spain (ES)|43.4623057|-3.8099803
segovia|Segovia|SPAIN (ES)|40.9429|-4.1088|SEG-99|Segovia|Spain (ES)|40.942903|-4.108807
santa-cruz|Santa Cruz|ARGENTINA (AR)|NULL|NULL|TOUSAN|Santa Cruz|Argentina (AR)|-48.62|-70.01
vitoria|Vitoria|SPAIN (ES)|42.8591|-2.6818|VIT-20|Vitoria |Spain (ES)|42.859166|-2.681792
zaragoza|Zaragoza|SPAIN (ES)|41.6488|-0.8897|ZAZ-99|Zaragoza|Spain (ES)|41.65|-0.883333
santa-fe|Santa Fe|ARGENTINA (AR)|NULL|NULL|TUR-STF|Santa Fe|Argentina (AR)|-31.610658|-60.697294
villa-alberto-andres-alvarado-aramburo|Villa Alberto Andrés Alvarado Arámburo|MEXICO (MX)|NULL|NULL|SRE-5|Arad|Israel (IL)|31.261447|35.21486200000004
armenia|Armenia|COLOMBIA (CO)|4.498677|-75.72508|AXM|Armenia|Colombia (CO)|4.540726152469631|-75.66928532060119
bucaramanga|Bucaramanga|COLOMBIA (CO)|7.137159|-73.13279|BGA|Bucaramanga|Colombia (CO)|7.119349|-73.12274159999998
bocas-del-toro|Bocas del Toro|PANAMA (PA)|NULL|NULL|BTO|Bocas del Toro|Panama (PA)|9.340556|-82.240556
jerez-de-la-frontera|Jerez de la Frontera|SPAIN (ES)|NULL|NULL|CAD|Jerez|Spain (ES)|36.685006|-6.126074
ceuta|Ceuta|SPAIN (ES)|35.8893|-5.3213|CEU|Ceuta|Spain (ES)|35.888333|-5.315556
chetumal|Chetumal|MEXICO (MX)|18.53103|-88.3083|CHE|Chetumal|Mexico (MX)|18.51740644052279|-88.29989761938265
indian-church|Indian Church|BELIZE (BZ)|NULL|NULL|CHU|Chur|Switzerland (CH)|46.85|9.533333
colima|Colima|MEXICO (MX)|19.214584|-103.721436|CLQ|Colima|Mexico (MX)|19.2452342|-103.72408680000001
coatzacoalcos|Coatzacoalcos|MEXICO (MX)|18.13256|-94.39736|COA|Coatzacoalcos|Mexico (MX)|18.1344779|-94.4589858
curico|Curicó|CHILE (CL)|-35.19931|-70.89491|CU1|Curico|Chile (CL)|-34.97712676941464|-71.24290466308595
boquete|Boquete|PANAMA (PA)|8.807488|-82.466324|DAW|Boquete|Panama (PA)|8.78|-82.44
victoria-de-durango|Victoria de Durango|MEXICO (MX)|NULL|NULL|DGO|Durango|Mexico (MX)|24.02514696292903|-104.6697472789187
encarnacion|Encarnación|PARAGUAY (PY)|NULL|NULL|ENO|Encarnación|Paraguay (PY)|-27.2522918|-55.913586699999996
guadalajara|Guadalajara|SPAIN (ES)|40.6324|-3.1601|GUJ|Guadalajara |Spain (ES)|40.632489|-3.16017
hermosillo|Hermosillo|MEXICO (MX)|29.082874|-110.95848|HMO|Hermosillo|Mexico (MX)|29.097296110327918|-110.95923325578173
huatulco|Huatulco|MEXICO (MX)|NULL|NULL|HUA|Huatulco|Mexico (MX)|15.726883555835869|-96.31502662836459
iquique|Iquique|CHILE (CL)|-20.217|-70.1376|IQQ|Iquique|Chile (CL)|-20.230703|-70.135669
ixtapaluca|Ixtapaluca|MEXICO (MX)|19.342798|-98.779076|IXT|Ixtapa|Mexico (MX)|17.66564|-101.598292
lugo|Lugo|SPAIN (ES)|43.0097|-7.5567|LGO|Lugo|Spain (ES)|43.009738|-7.556758
manzanillo|Manzanillo|MEXICO (MX)|19.052996|-104.31699|MAN|Manzanillo |Mexico (MX)|19.055763520329734|-104.30346165607727
matamoros|Matamoros|MEXICO (MX)|32.5167|-116.85|MAT|Matamoros|Mexico (MX)|25.869029|-97.502738
mazatlan|Mazatlán|MEXICO (MX)|NULL|NULL|MAZ|Mazatlan|Mexico (MX)|23.233110941902467|-106.41307510422335
mancora|Mancora|PERU (PE)|NULL|NULL|MC4|Mancora|Peru (PE)|-4.1031|-81.0481
machachi|Machachi|ECUADOR (EC)|-0.563936|-78.51166|MHA|Machachi|Ecuador (EC)|-0.5107264|-78.5717631
san-miguel-de-allende|San miguel de Allende|MEXICO (MX)|NULL|NULL|MIG|San Miguel de Allende|Mexico (MX)|20.914449|-100.745235
melilla|Melilla|SPAIN (ES)|35.2922|-2.938|MLN|Melilla|Spain (ES)|35.3|-2.95
mexicali|Mexicali|MEXICO (MX)|32.57951|-115.39533|MXL|Mexicali|Mexico (MX)|32.6245389|-115.45226230000003
nazca|Nazca|PERU (PE)|-14.8277|-74.9371|NAC|Nazca|Peru (PE)|-14.828889|-74.943611
nogales|Nogales|MEXICO (MX)|31.317806|-110.94683|NG1|Nogales|Mexico (MX)|31.279741866692405|-110.93764588330886
palencia|Palencia|SPAIN (ES)|42.0096|-4.5288|PAL|Palencia|Spain (ES)|42.016667|-4.533333
cozumel|Cozumel|MEXICO (MX)|20.447342|-86.89765|PAV|Cozumel|Mexico (MX)|20.44944672819378|-86.88262939453125
la-paz|La Paz|MEXICO (MX)|NULL|NULL|PAZ|La Paz |Mexico (MX)|24.142222|-110.310833
piedras-negras|Piedras Negras|MEXICO (MX)|NULL|NULL|PDS|Piedras Negras|Mexico (MX)|28.67794358420113|-100.58785062427903
pereira|Pereira|COLOMBIA (CO)|4.815725|-75.70425|PEI|Pereira|Colombia (CO)|4.814278|-75.694558
puerto-montt|Puerto Montt|CHILE (CL)|NULL|NULL|PMC|Puerto Montt|Chile (CL)|-41.468917|-72.941136
puno|Puno|PERU (PE)|-15.8406|-70.0279|PUN|Puno|Peru (PE)|-15.843333|-70.023611
salta|Salta|ARGENTINA (AR)|-24.786644|-65.41479|SLT|Salta|Argentina (AR)|-24.783333|-65.416667
santiago-de-cuba|Santiago de Cuba|CUBA (CU)|NULL|NULL|STG|Santiago de Cuba|Cuba (CU)|20.01693|-75.830154
sitges|Sitges|SPAIN (ES)|41.23655|1.80954|STS|Sitges|Spain (ES)|41.237185|1.805886
taxco-de-alarcon|Taxco de Alarcón|MEXICO (MX)|NULL|NULL|TAX|Taxco|Mexico (MX)|18.556547|-99.605121
antigua-guatemala|Antigua Guatemala|GUATEMALA (GT)|NULL|NULL|TKM|Antigua Guatemala|Guatemala (GT)|14.566667|-90.733333
trinidad|Trinidad|CUBA (CU)|21.8023|-79.99778|TND|Trinidad |Cuba (CU)|21.804167|-79.983056
sucre|Sucre|BOLIVIA (BO)|-19.048325|-65.25827|US7|Sucre|Bolivia (BO)|-19.05|-65.25
valparaiso|Valparaíso|CHILE (CL)|-33.0472|-71.6126|VAP|Valparaiso|Chile (CL)|-33.05|-71.616667
santa-clara-25442|Santa Clara|CUBA (CU)|NULL|NULL|VCL|Santa Clara|Cuba (CU)|22.39393236584345|-79.97221470228398
pontevedra|Pontevedra|SPAIN (ES)|42.4298|-8.6446|VGO|Pontevedra|Spain (ES)|42.433333|-8.633333
santa-cruz-de-la-sierra|Santa Cruz de la Sierra|BOLIVIA (BO)|NULL|NULL|VVI|Santa Cruz de la Sierra|Bolivia (BO)|-17.8|-63.18
xalapa-enriquez|Xalapa-Enríquez|MEXICO (MX)|NULL|NULL|XAL|Xalapa|Mexico (MX)|19.525488177194077|-96.92543983571886
ancud|Ancud|CHILE (CL)|-41.915462|-73.79246|ZUD|Ancud|Chile (CL)|-41.8675003|-73.8276965
potosi|Potosí|BOLIVIA (BO)|NULL|NULL|CAS1|Potosi|Bolivia (BO)|-19.579846540004144|-65.75729370117189
paipa|Paipa|COLOMBIA (CO)|5.808499|-73.183945|CAS3|Paipa|Colombia (CO)|5.780649599211813|-73.1177043914795
la-paloma|La Paloma|URUGUAY (UY)|NULL|NULL|PDP3|La Paloma|Uruguay (UY)|-34.652132475112666|-54.17804718017579
chiriqui-grande|Chiriquí Grande|PANAMA (PA)|NULL|NULL|dav3|Chiriquí|Panama (PA)|8.35282301503959|-82.27111816406251
calvillo|Calvillo|MEXICO (MX)|21.823088|-102.75364|AGU-2|Calvillo|Mexico (MX)|21.8468345|-102.71864540000001
altea|Altea|SPAIN (ES)|38.623142|-0.045181|ALC13|Altea|Spain (ES)|38.6029075|-0.045066600000041035
salento|Salento|COLOMBIA (CO)|4.611373|-75.53081|AXM-3|Salento |Colombia (CO)|4.638536641585489|-75.56911468505861
urubamba|Urubamba|PERU (PE)|-13.3061|-72.116|AYP-1|Urubamba|Peru (PE)|-13.304167|-72.116667
el-fuerte|El Fuerte|MEXICO (MX)|NULL|NULL|BDC-5|El fuerte|Mexico (MX)|26.417632|-108.61459379999997
todos-santos|Todos Santos|MEXICO (MX)|NULL|NULL|CAB-1|Todos Santos|Mexico (MX)|23.4463619|-110.22651009999998
ciudad-del-carmen|Ciudad del Carmen|MEXICO (MX)|NULL|NULL|CAM-2|Ciudad del Carmen|Mexico (MX)|18.6504879|-91.80745860000002
champoton|Champotón|MEXICO (MX)|NULL|NULL|CAM-4|Champoton|Mexico (MX)|19.37204517690727|-90.68389892578126
calakmul|Calakmul|MEXICO (MX)|NULL|NULL|CAM-5|Calakmul|Mexico (MX)|18.0383007|-89.6738919
bacalar|Bacalar|MEXICO (MX)|18.809763|-88.32311|-CHE2,00|Bacalar|Mexico (MX)|18.6782919|-88.39239459999999
mahahual|Mahahual|MEXICO (MX)|18.715727|-87.707855|-CHE3,00|Mahahual|Mexico (MX)|18.7138888|-87.7094444
tapachula-de-cordova-y-ordonez|Tapachula de Córdova y Ordóñez|MEXICO (MX)|NULL|NULL|CIP-1|Tapachula|Mexico (MX)|14.9055567|-92.26341359999998
san-cristobal-de-las-casas|San Cristóbal de las Casas|MEXICO (MX)|NULL|NULL|CSDC-1|San Cristóbal de las Casas|Mexico (MX)|16.73315278979473|-92.63913931368702
comitan-de-dominguez|Comitán de Domínguez|MEXICO (MX)|NULL|NULL|CMT-3|Comitán|Mexico (MX)|16.245251254451233|-92.13157602304108
cordoba|Córdoba|MEXICO (MX)|NULL|NULL|COR-1|Córdoba |Mexico (MX)|18.8838909|-96.9237751
huatusco-de-chicuellar|Huatusco de Chicuellar|MEXICO (MX)|NULL|NULL|COR-3|Huatusco|Mexico (MX)|19.1482351|-96.96654760000001
manzanares|Manzanares|COLOMBIA (CO)|NULL|NULL|CRE30|Manzanares|Spain (ES)|39.004284|-3.371644
chitre|Chitré|PANAMA (PA)|NULL|NULL|CTD-3|Chitre|Panama (PA)|7.962337459144956|-80.42404174804689
tecate|Tecate|MEXICO (MX)|32.543755|-116.62708|ETC-1|Tecate|Mexico (MX)|32.5685837|-116.6346969
abasolo|Abasolo|MEXICO (MX)|24.133987|-98.26829|FAKE1|Abasolo|Mexico (MX)|20.452319|-101.52650169999998
san-juan-de-los-lagos|San Juan de los Lagos|MEXICO (MX)|NULL|NULL|GUA-4|San Juan De Los Lagos|Mexico (MX)|21.2474689|-102.33169989999999
tequila|Tequila|MEXICO (MX)|21.112495|-103.78097|GUA-5|Tequila|Mexico (MX)|20.882778|-103.836667
chapala|Chapala|MEXICO (MX)|20.310236|-103.17789|GUA-6|Chapala|Mexico (MX)|20.3051576|-103.18460160000001
apaseo-el-grande|Apaseo el Grande|MEXICO (MX)|NULL|NULL|GUO-1|Apaseo el Grande|Mexico (MX)|20.5446948|-100.6844284
irapuato|Irapuato|MEXICO (MX)|20.699814|-101.368324|GUO-2|Irapuato|Mexico (MX)|20.6786652|-101.35449640000002
heroica-guaymas|Heroica Guaymas|MEXICO (MX)|NULL|NULL|GYM-3|Guaymas|Mexico (MX)|27.92928682214483|-110.90017375671256
chichicastenango|Chichicastenango|GUATEMALA (GT)|14.9414|-91.107635|HIC-3|Chichicastenango|Guatemala (GT)|14.930189148183592|-91.11373901367189
hidalgo-del-parral|Hidalgo del Parral|MEXICO (MX)|NULL|NULL|HIDALGO-6|Hidalgo |Mexico (MX)|20.427495927164998|-99.09879223508047
talca|Talca|CHILE (CL)|-35.42776|-71.60246|ICA10|Talca|Chile (CL)|-35.42906429359501|-71.66004180908205
zihuatanejo|Zihuatanejo|MEXICO (MX)|17.643211|-101.55699|IXT-1|Zihuatanejo|Mexico (MX)|17.6416693|-101.5516955
ubeda|Úbeda|SPAIN (ES)|NULL|NULL|UBE-E|Úbeda|Spain (ES)|38.01303045444121|-3.371305923100465
pucallpa|Pucallpa|PERU (PE)|-8.38328|-74.5323|LLP-1|Pucallpa|Peru (PE)|-8.3928622|-74.5826166
algeciras|Algeciras|SPAIN (ES)|36.12912|-5.44664|LUZ-5|Algeciras|Spain (ES)|36.140759|-5.456233
sanlucar-de-barrameda|Sanlúcar de Barrameda|SPAIN (ES)|NULL|NULL|LUZ-9|Sanlúcar de Barrameda|Spain (ES)|36.772577|-6.352969
mijas|Mijas|SPAIN (ES)|36.59557|-4.63771|Mijas|Mijas|Spain (ES)|36.61632301947828|-4.662319095223212
aviles|Avilés|SPAIN (ES)|NULL|NULL|OVD-2|Avilés|Spain (ES)|43.557952|-5.924665
pachuca-de-soto|Pachuca de Soto|MEXICO (MX)|NULL|NULL|PCH-1|Pachuca de Soto|Mexico (MX)|20.1010608|-98.75913109999999
tula-de-allende|Tula de Allende|MEXICO (MX)|NULL|NULL|PCH-2|Tula de Allende|Mexico (MX)|20.0535516|-99.33956360000002
popayan|Popayán|COLOMBIA (CO)|NULL|NULL|PPN-1|Popayan|Colombia (CO)|2.4448143|-76.61473949999998
poza-rica-de-hidalgo|Poza Rica de Hidalgo|MEXICO (MX)|NULL|NULL|PZR-1|Poza Rica de Hidalgo|Mexico (MX)|20.5270592|-97.4629119
san-juan-del-rio|San Juan del Rio|MEXICO (MX)|NULL|NULL|QUE-1|San Juan Del Rio|Mexico (MX)|20.37573669131021|-99.99259880057599
tequisquiapan|Tequisquiapan|MEXICO (MX)|20.551172|-99.95256|QUE-4|Tequisquiapan|Mexico (MX)|20.5187326|-99.88505859999998
reynosa|Reynosa|MEXICO (MX)|25.810247|-98.37336|REX-3|Reynosa|Mexico (MX)|26.068502530912397|-98.29055786132814
cambrils|Cambrils|SPAIN (ES)|41.06643|1.06123|SAL30|Cambrils|Spain (ES)|41.0666754|1.0603605999999672
san-miguel-de-tucuman|San Miguel de Tucumán|ARGENTINA (AR)|NULL|NULL|SMT-2|San Miguel de Tucumán|Argentina (AR)|-26.822057829136092|-65.20365856085262
san-salvador-de-jujuy|San Salvador de Jujuy|ARGENTINA (AR)|NULL|NULL|SSJ-2|San Salvador de Jujuy|Argentina (AR)|-24.178875774761806|-65.3001442194517
valle-de-bravo|Valle de Bravo|MEXICO (MX)|NULL|NULL|TCA-2|Valle de Bravo|Mexico (MX)|19.1950964|-100.13267250000001
barrancabermeja|Barrancabermeja|COLOMBIA (CO)|7.044182|-73.78313|-BRR36,00|Barrancabermeja|Colombia (CO)|7.0617085|-73.85193190000001
golfito|Golfito|COSTA RICA (CR)|8.640285|-83.16741|TMU-6|Golfito|Costa Rica (CR)|8.637370630297879|-83.16650390625001
tepic|Tepic|MEXICO (MX)|21.62159|-104.840485|TPQ-1|Tepic|Mexico (MX)|21.5041651|-104.89458869999999
cuauhtemoc|Cuauhtémoc|MEXICO (MX)|NULL|NULL|UAC-1|Cuauhtemoc|Mexico (MX)|28.406359|-106.86540660000003
cambados|Cambados|SPAIN (ES)|42.505|-8.80782|VGO80|Cambados|Spain (ES)|42.513737|-8.814517
paraiso|Paraíso|MEXICO (MX)|NULL|NULL|VIA-3|Paraiso|Mexico (MX)|18.356480657859535|-93.2183074951172
tuxpan|Tuxpan|MEXICO (MX)|20.98212|-97.37937|VRA-1|Tuxpan|Mexico (MX)|20.9561149|-97.40633509999998
torremolinos|Torremolinos|SPAIN (ES)|36.621887|-4.49993|AGP-10|Torremolinos|Spain (ES)|36.622554|-4.499477
benalmadena|Benalmádena|SPAIN (ES)|NULL|NULL|AGP-15|Benalmadena|Spain (ES)|36.59254350785544|-4.572775442353418
fuengirola|Fuengirola|SPAIN (ES)|36.539192|-4.62433|AGP-20|Fuengirola|Spain (ES)|36.54|-4.63
marbella|Marbella|SPAIN (ES)|36.50996|-4.88413|AGP-30|Marbella|Spain (ES)|36.510071|-4.882447
nerja|Nerja|SPAIN (ES)|36.74746|-3.87637|AGP-45|Nerja|Spain (ES)|36.74988847598359|-3.8843536376953125
estepona|Estepona|SPAIN (ES)|36.42548|-5.14489|AGP-50|Estepona|Spain (ES)|36.43012234551579|-5.158081054687501
torrevieja|Torrevieja|SPAIN (ES)|37.97733|-0.68045|ALC-10|Torrevieja|Spain (ES)|38.03991822343685|-0.7415693427901717
javea|Javea|SPAIN (ES)|NULL|NULL|ALC-20|Javea|Spain (ES)|38.789011|0.166081
denia|Denia|SPAIN (ES)|NULL|NULL|ALC-24|Denia|Spain (ES)|38.838799|0.105056
calpe|Calpe|SPAIN (ES)|38.644753|0.0445|ALC-57|Calpe|Spain (ES)|38.645612032803115|0.04691916812407726
benidorm|Benidorm|SPAIN (ES)|38.536713|-0.12945|BEN-60|Benidorm|Spain (ES)|38.535917|-0.124128
castellon-de-la-plana|Castellón de la Plana|SPAIN (ES)|39.9863|-0.0513|CAS-99|Castellón de la Plana|Spain (ES)|39.986356|-0.051325
almunecar|Almuñécar|SPAIN (ES)|NULL|NULL|CTR-10|Almuñécar|Spain (ES)|36.734473|-3.68902
isla-mujeres|Isla Mujeres|MEXICO (MX)|NULL|NULL|CUN-50|Isla Mujeres|Mexico (MX)|21.2366946|-86.73576789999998
gandia|Gandía|SPAIN (ES)|38.96601|-0.1852|CVA-10|Gandía|Spain (ES)|38.95133870641585|-0.21147901075892153
zapopan|Zapopan|MEXICO (MX)|20.795013|-103.49425|GUA-12|Zapopan|Mexico (MX)|20.6719563|-103.41650099999998
silao|Silao|MEXICO (MX)|20.944149|-101.42682|GUO-10|Silao|Mexico (MX)|20.952141|-101.4282369
salamanca|Salamanca|MEXICO (MX)|20.62511|-101.1651|GUO-30|Salamanca |Mexico (MX)|20.5739314|-101.19571719999999
celaya|Celaya|MEXICO (MX)|20.521252|-100.81261|GUO-40|Celaya|Mexico (MX)|20.5279612|-100.81128849999999
castro|Castro|CHILE (CL)|-42.475304|-73.75514|HLE-27|Castro|Chile (CL)|-42.4801402|-73.76241370000002
mojacar|Mojácar|SPAIN (ES)|NULL|NULL|LEI-30|Mojácar|Spain (ES)|37.140279|-1.850733
roquetas-de-mar|Roquetas de Mar|SPAIN (ES)|NULL|NULL|LEI-40|Roquetas de Mar|Spain (ES)|36.763682|-2.615427
lloret-de-mar|Lloret de Mar|SPAIN (ES)|NULL|NULL|LLM-99|Lloret de Mar|Spain (ES)|41.700599|2.839819
las-palmas-de-gran-canaria|Las Palmas de Gran Canaria|SPAIN (ES)|28.1235|-15.4362|LPA-10|Las Palmas de Gran Canaria|Spain (ES)|28.1310776|-15.4392611
isla-cristina|Isla Cristina|SPAIN (ES)|NULL|NULL|LUS-15|Isla Cristina|Spain (ES)|37.199167|-7.321389
matalascanas|Matalascañas|SPAIN (ES)|NULL|NULL|LUS-25|Matalascañas|Spain (ES)|36.998254|-6.551621
chiclana-de-la-frontera|Chiclana de la Frontera|SPAIN (ES)|NULL|NULL|LUZ-15|Chiclana de la Frontera|Spain (ES)|36.416505|-6.14611
chipiona|Chipiona|SPAIN (ES)|36.728893|-6.409672|LUZ-20|Chipiona|Spain (ES)|36.7378531|-6.4376642
conil-de-la-frontera|Conil de la Frontera|SPAIN (ES)|NULL|NULL|LUZ-25|Conil de la Frontera|Spain (ES)|36.278099|-6.086207
ronda|Ronda|SPAIN (ES)|36.74268|-5.16536|OND-01|Onda|Spain (ES)|39.97442314199563|-0.2525246393319378
metepec|Metepec|MEXICO (MX)|NULL|NULL|MDF-10|Metepec|Mexico (MX)|19.2528864|-99.59855099999999
tepotzotlan|Tepotzotlán|MEXICO (MX)|NULL|NULL|MDF-30|Tepotzotlan|Mexico (MX)|19.7185096|-99.2065202
merida|Mérida|MEXICO (MX)|NULL|NULL|MER-10|Merida |Mexico (MX)|20.97|-89.62
chichen-itza|Chichen Itza|MEXICO (MX)|NULL|NULL|MER-20|Chichen-Itza|Mexico (MX)|20.6783333|-88.56888879999997
cuautitlan|Cuautitlán|MEXICO (MX)|NULL|NULL|MEX-77|Cuautitlan|Mexico (MX)|19.646144279333953|-99.19967651367189
cartagena|Cartagena|SPAIN (ES)|37.6|-0.981944|MJV-20|Cartagena|Spain (ES)|37.68695719816848|-1.0491787246428432
patzcuaro|Pátzcuaro|MEXICO (MX)|NULL|NULL|PTZ-2|Pátzcuaro|Mexico (MX)|19.518195293960623|-101.61289019946709
nueva-esperanza|Nueva Esperanza|PANAMA (PA)|NULL|NULL|OVD-12|Nueva|Spain (ES)|43.437635|-4.939627
gijon|Gijón|SPAIN (ES)|NULL|NULL|GJN-1|Gijón|Spain (ES)|43.53160237920915|-5.66716730638754
llanes|Llanes|SPAIN (ES)|43.421246|-4.754211|OVD-60|Llanes|Spain (ES)|43.421148|-4.756216
playa-del-carmen|Playa del Carmen|MEXICO (MX)|NULL|NULL|PCM-10|Playa del Carmen|Mexico (MX)|20.646298535891304|-87.08784580781784
tulum|Tulum|MEXICO (MX)|20.210398|-87.46582|PCM-30|Tulum|Mexico (MX)|20.21|-87.46
salou|Salou|SPAIN (ES)|41.07634|1.13176|SAL-10|Salou|Spain (ES)|41.077778|1.128889
chubut|Chubut|ARGENTINA (AR)|NULL|NULL|TOUCHU|Chubut|Argentina (AR)|-43.3|-65.1
corrientes|Corrientes|ARGENTINA (AR)|-27.496693|-58.774998|TOUCOR|Corrientes|Argentina (AR)|-27.483333|-58.816667
misiones|Misiones|ARGENTINA (AR)|NULL|NULL|TOUMIS|Misiones|Argentina (AR)|-27.392497540937864|-55.92041015625001
vigo|Vigo|SPAIN (ES)|42.13676|-6.690038|VIG-99|Vigo|Spain (ES)|42.240599|-8.720727
salvatierra|Salvatierra|MEXICO (MX)|20.207558|-100.91514|Fake-11|Salvatierra|Mexico (MX)|20.2090023|-100.88184009999998
la-plata|La Plata|ARGENTINA (AR)|NULL|NULL|LAP-123|La Plata|Argentina (AR)|-34.920495|-57.953566
alajuela|Alajuela|COSTA RICA (CR)|10.016696|-84.224434|300|Alajuela|Costa Rica (CR)|10.391583|-84.4382721
quepos|Quepos|COSTA RICA (CR)|9.43089|-84.16396|328|Quepos|Costa Rica (CR)|9.432143|-84.16151
san-blas-atempa|San Blas Atempa|MEXICO (MX)|NULL|NULL|501|San Blas|Panama (PA)|9.544442822720683|-78.77569921015717
baeza|Baeza|SPAIN (ES)|37.945347|-3.490764|BAE|Baeza|Spain (ES)|37.995803|-3.467401
iguala-de-la-independencia|Iguala de la Independencia|MEXICO (MX)|NULL|NULL|IGI|Iguala de la Independencia|Mexico (MX)|18.3448477|-99.53973439999999
la-rioja|La Rioja|ARGENTINA (AR)|NULL|NULL|IRJ|La Rioja|Argentina (AR)|-29.448035389420514|-66.85129802674057
nuevo-laredo|Nuevo Laredo|MEXICO (MX)|NULL|NULL|NLD|Nuevo Laredo|Mexico (MX)|27.479698247982427|-99.51591930305241
rancagua|Rancagua|CHILE (CL)|-34.125664|-70.81693|RNA|Rancagua|Chile (CL)|-34.170132|-70.740626
banos|Baños|ECUADOR (EC)|NULL|NULL|ANB-1|Baños|Ecuador (EC)|-1.4|-78.43
ciego-de-avila|Ciego de Ávila|CUBA (CU)|NULL|NULL|CDA-2|Ciego de Ávila|Cuba (CU)|21.844354392507825|-78.76514245151814
barrio-colon|Barrio Colón|PANAMA (PA)|NULL|NULL|CLO-3|Colón|Argentina (AR)|-32.21806119446975|-58.135545183523604
concordia|Concordia|ARGENTINA (AR)|-31.397402|-58.017277|CNC-2|Concordia|Argentina (AR)|-31.39292202932701|-58.0169066019111
yopal|Yopal|COLOMBIA (CO)|5.251512|-72.26816|EYP-1|Yopal|Colombia (CO)|5.348903|-72.40052300000002
guerrero-negro|Guerrero Negro|MEXICO (MX)|NULL|NULL|GRR-002|Guerrero|Mexico (MX)|17.613056|-99.95
coyhaique|Coyhaique|CHILE (CL)|-45.571213|-72.06847|GXQ-1|Coyhaique|Chile (CL)|-45.56748354267024|-72.05657178419642
guayaramerin|Guayaramerín|BOLIVIA (BO)|NULL|NULL|JAI-1|Amer|India (IN)|26.985678|75.851356
puntarenas|Puntarenas|COSTA RICA (CR)|9.968638|-84.80772|JCO20|Puntarenas|Costa Rica (CR)|9.9778439|-84.82942109999999
cazorla|Cazorla|SPAIN (ES)|37.913292|-3.00256|JEN-3|Cazorla|Spain (ES)|37.9124527|-3.0038121000000046
juliaca|Juliaca|PERU (PE)|-15.4964|-70.1315|JUL-1|Juliaca|Peru (PE)|-15.486422731455649|-70.12597427121365
leticia|Leticia|COLOMBIA (CO)|-3.52318|-70.03605|LET-1|Leticia|Colombia (CO)|-4.210149608051278|-69.93484497070314
lanus|Lanús|ARGENTINA (AR)|NULL|NULL|LNS-6|Lanús|Argentina (AR)|-34.703431559745106|-58.392765309575154
monclova|Monclova|MEXICO (MX)|26.896856|-101.19439|LOV-3|Monclova|Mexico (MX)|26.902476886279832|-101.40930175781251
collado-villalba|Collado Villalba|SPAIN (ES)|40.6333|-4.00833|VILAL-6|Villalba|Spain (ES)|43.29644120053919|-7.678980510866268
san-rafael|San Rafael|ARGENTINA (AR)|NULL|NULL|MEZ-2|San Rafael|Argentina (AR)|-34.61923961159946|-68.33461566333426
miramar|Miramar|PANAMA (PA)|9.575097|-79.33312|MRM-2|Miramar|Argentina (AR)|-38.26783079180215|-57.84178357204344
la-oliva|La Oliva|SPAIN (ES)|NULL|NULL|OLV-2|La Oliva|Spain (ES)|28.615267765944424|-13.92448425292969
pinar-del-rio|Pinar del Río|CUBA (CU)|NULL|NULL|PDR-2|Pinar del Río|Cuba (CU)|22.425290960936863|-83.6922614186413
parana|Paraná|ARGENTINA (AR)|NULL|NULL|PRA-1|Paraná|Argentina (AR)|-31.752825793944496|-60.51267970120535
posadas|Posadas|ARGENTINA (AR)|-27.360744|-55.900238|PSA-2|Posadas|Argentina (AR)|-27.36590046188688|-55.894619707028184
cabrera|Cabrera|DOMINICAN REPUBLIC (DO)|19.580109|-69.96021|RPD-2|Cabrera|Dominican Republic (DO)|19.635409805020558|-69.90966592848909
barichara|Barichara|COLOMBIA (CO)|6.645126|-73.21573|SG1-2|Barichara|Colombia (CO)|6.630947|-73.1811963
tandil|Tandil|ARGENTINA (AR)|-37.347374|-59.12383|TDL-1|Tandil|Argentina (AR)|-37.3238205399637|-59.13664990919643
villa-de-leyva|Villa De Leyva|COLOMBIA (CO)|NULL|NULL|VDL-1|Villa de Leyva|Colombia (CO)|5.636499|-73.52705800000001
san-rosa-viterbo|San Rosa Viterbo|COLOMBIA (CO)|NULL|NULL|VIB-1|Viterbo|Italy (IT)|42.41230444242071|12.100067138671877
valdivia|Valdivia|CHILE (CL)|-39.81117|-73.18916|-ZAL1,00|Valdivia|Chile (CL)|-39.81182069255033|-73.21836817776786
guardamar-del-segura|Guardamar del Segura|SPAIN (ES)|NULL|NULL|ALC-30|Guardamar del Segura|Spain (ES)|38.10778653627413|-0.6845816684653984
cabo-san-lucas|Cabo San Lucas|MEXICO (MX)|NULL|NULL|CAB-40|Cabo San Lucas|Mexico (MX)|22.958393318086348|-109.92370605468751
peniscola|Peñíscola|SPAIN (ES)|NULL|NULL|CAZ-10|Peñíscola|Spain (ES)|40.359684431918566|0.3856691087619595
chivay|Chivay|PERU (PE)|-15.6367|-71.6021|CHV-87|Chivay|Peru (PE)|-15.6388455|-71.60204379999999
motril|Motril|SPAIN (ES)|36.738537|-3.485211|CTR-20|Motril|Spain (ES)|36.748975|-3.518036
holguin|Holguín|CUBA (CU)|NULL|NULL|HOL-98|Holguin|Cuba (CU)|20.8795129|-76.25949809999997
ibague|Ibague|COLOMBIA (CO)|NULL|NULL|IBA-34|Ibague|Colombia (CO)|4.444675999999999|-75.24243799999999
linares|Linares|MEXICO (MX)|24.851768|-99.52923|LNR-002|Linares|Mexico (MX)|24.85294306850801|-99.56736864272933
vera|Vera|SPAIN (ES)|37.22527|-1.856161|LEI-50|Vera|Spain (ES)|37.2291388|-1.8611011000000417
tossa-de-mar|Tossa de Mar|SPAIN (ES)|NULL|NULL|LLM-30|Tossa de Mar|Spain (ES)|41.722499|2.930367
haro|Haro|SPAIN (ES)|42.57668|-2.84669|LOG-20|Haro|Spain (ES)|42.5768716|-2.8502301999999418
islantilla|Islantilla|SPAIN (ES)|37.21031|-7.217119|LUS-20|Islantilla|Spain (ES)|37.2108386|-7.2536747
aranjuez|Aranjuez|SPAIN (ES)|40.0333|-3.6166|-MAD21,00|Aranjuez|Spain (ES)|40.03287211677227|-3.6048889160156254
san-juan-del-rio-del-centauro-del-norte|San Juan del Río del Centauro del Norte|MEXICO (MX)|NULL|NULL|MON-40|Norte|Mexico (MX)|19.378487|-99.208552
valle-de-santiago|Valle de Santiago|MEXICO (MX)|NULL|NULL|MON-60|Valle|Mexico (MX)|20.5500693|-100.3965546
nuevo-vallarta|Nuevo Vallarta|MEXICO (MX)|NULL|NULL|NVRT-1|Nuevo Vallarta|Mexico (MX)|20.699529|-105.291712
otavalo|Otavalo|ECUADOR (EC)|NULL|NULL|OTA-87|Otavalo|Ecuador (EC)|0.2343005|-78.26106720000001
ribadesella|Ribadesella|SPAIN (ES)|43.4459|-5.0834|OVD-17|Ribadesella|Spain (ES)|43.463083|-5.056138
pisco|Pisco|PERU (PE)|-13.71|-76.2031|PIS-33|Pisco|Peru (PE)|-13.7125368841976|-76.20512008666992
quilmes|Quilmes|ARGENTINA (AR)|-34.734573|-58.27016|QLMS-6|Quilmes|Argentina (AR)|-34.718433111851645|-58.23904693294101
riohacha|Riohacha|COLOMBIA (CO)|11.243345|-72.95841|RIH-87|Riohacha|Colombia (CO)|11.5384151|-72.91678379999996
uyuni|Uyuni|BOLIVIA (BO)|-20.404022|-66.858536|UYU123,00|Uyuni|Bolivia (BO)|-20.461512|-66.8255
finisterre|Finisterre|SPAIN (ES)|42|-9|FNTRR-6|Finisterre|Spain (ES)|42.89586856181779|-9.270555987832523
guama|Guamá|CUBA (CU)|NULL|NULL|GUAMA-6|Guama|Cuba (CU)|19.976643399806278|-76.50477286556594
puerto-francisco-de-orellana|Puerto Francisco De Orellana|ECUADOR (EC)|NULL|NULL|ORELL-6|Francisco de Orellana|Ecuador (EC)|-0.46108637755568793|-76.99256877657176
tlaxcala-tlaxcala-de-xicotencatl|Tlaxcala (Tlaxcala de Xicotencatl)|MEXICO (MX)|NULL|NULL|TLXCL-6|Tlaxcala|Mexico (MX)|19.31657472481858|-98.24015640931158
lagos-de-moreno|Lagos de Moreno|MEXICO (MX)|NULL|NULL|LDMORE-6|Lagos de Moreno|Mexico (MX)|21.35740837564228|-101.93528539804835
uruapan|Uruapan|MEXICO (MX)|19.413227|-102.03909|URUAPAN-6|Uruapan|Mexico (MX)|19.41586276770107|-102.05069215132994
pujili|Pujilí|ECUADOR (EC)|NULL|NULL|3VX|Pujili|Ecuador (EC)|-0.9550466294190159|-78.69497854191509
salcedo|Salcedo|ECUADOR (EC)|NULL|NULL|3VY|Salcedo|Ecuador (EC)|-1.0437500506716617|-78.59194732171103
aracataca|Aracataca|COLOMBIA (CO)|10.628093|-73.96216|ATC|Aracataca|Colombia (CO)|10.590688435532542|-74.18792955742711
esquel|Esquel|ARGENTINA (AR)|-42.84129|-71.55574|EQS|Esquel|Argentina (AR)|-42.91719579225144|-71.32153957689376
santa-elena|Santa Elena|ECUADOR (EC)|NULL|NULL|STE-002|Santa Elena|Ecuador (EC)|-2.2267|-80.8583
neuquen|Neuquén|ARGENTINA (AR)|NULL|NULL|NQ1|Neuquen|Argentina (AR)|-38.9525|-68.064167
raquira|Ráquira|COLOMBIA (CO)|NULL|NULL|RAQ|Raquira|Colombia (CO)|5.53811892285934|-73.63295621533914
san-juan-chamula|San Juan Chamula|MEXICO (MX)|NULL|NULL|SJC|San Juan Chamula|Mexico (MX)|16.798617482239052|-92.68893377059672
sogamoso|Sogamoso|COLOMBIA (CO)|5.671058|-72.887085|SOG|Sogamoso|Colombia (CO)|5.718846174867693|-72.92719570339084
turrialba|Turrialba|COSTA RICA (CR)|9.90431|-83.68332|SYQ|Turrialba|Costa Rica (CR)|9.907429055992296|-83.68260907330992
tunja|Tunja|COLOMBIA (CO)|8.180702|-73.23687|TNJ|Tunja|Colombia (CO)|5.5455683|-73.3665142
turbo|Turbo|COLOMBIA (CO)|7.955686|-76.73712|TRB|Turbo|Colombia (CO)|8.084535466217702|-76.71985918348607
sancti-spiritus|Sancti Spíritus|CUBA (CU)|NULL|NULL|Tus|Tus|Iran (IR)|36.485751091981584|59.51818505760966
valledupar|Valledupar|COLOMBIA (CO)|10.373765|-73.509964|VUP|Valledupar|Colombia (CO)|10.483333|-73.25
zipaquira|Zipaquirá|COLOMBIA (CO)|NULL|NULL|ZPQ|Zipaquira|Colombia (CO)|5.02531596297797|-74.00197333280987
viesca|Viesca|MEXICO (MX)|25.221865|-102.924965|vsc|Viesca|Mexico (MX)|25.34335734318681|-102.80486804589256
ciudad-de-mexico|Ciudad de México|MEXICO (MX)|NULL|NULL|xco|Xico|Mexico (MX)|19.423547632190363|-97.00883045030332
saquisili|Saquisilí|ECUADOR (EC)|NULL|NULL|3VV1|Saquisili|Ecuador (EC)|-0.7086814694238228|-78.65410065934077
acacias|Acacias|COLOMBIA (CO)|NULL|NULL|ACAC|Acacias|Colombia (CO)|3.985651452135869|-73.75720903893057
filadelfia|Filadelfia|PARAGUAY (PY)|-22.213842|-60.086098|ASU1|Filadelfia|Paraguay (PY)|-22.351686810451554|-60.03558392182097
puerto-baquerizo-moreno|Puerto Baquerizo Moreno|ECUADOR (EC)|NULL|NULL|BAQU|Puerto Baquerizo|Ecuador (EC)|-0.90583|-89.618665
ezeiza|Ezeiza|ARGENTINA (AR)|-34.81118|-58.547394|BUE4|Ezeiza|Argentina (AR)|-34.848733901784854|-58.528330904389406
cajica|Cajicá|COLOMBIA (CO)|NULL|NULL|CAJC|Cajica|Colombia (CO)|4.919188722641508|-74.02583214418881
catemaco|Catemaco|MEXICO (MX)|18.491076|-95.05555|CATE|Catemaco|Mexico (MX)|18.4259592|-95.1214908
puerto-rio-tranquilo|Puerto Rio Tranquilo|CHILE (CL)|NULL|NULL|CCH1|Puerto Rio Tranquilo|Chile (CL)|-46.62475978931455|-72.67672976726857
villa-mariano-moreno-el-colmenar|Villa Mariano Moreno-El Colmenar|ARGENTINA (AR)|NULL|NULL|CRD4|Villa Maria|Argentina (AR)|-32.404414038722074|-63.23837182886386
san-fernando-del-valle-de-catamarca|San Fernando del Valle de Catamarca|ARGENTINA (AR)|NULL|NULL|CTC1|San Fernando del Valle de Catamarca|Argentina (AR)|-28.46984536084782|-65.78693735581915
duitama|Duitama|COLOMBIA (CO)|5.890724|-73.06725|DUIT|Duitama|Colombia (CO)|5.826024002859057|-73.03173579346864
pedernales|Pedernales|ECUADOR (EC)|0.151738|-79.94859|EC12|Pedernales|Ecuador (EC)|0.11168684659998007|-80.03171278232357
santa-fe-de-antioquia|Santa Fe De Antioquía|COLOMBIA (CO)|NULL|NULL|FE-6|Santa Fe de Antioquía|Colombia (CO)|6.558407564765361|-75.82768226691088
guatavita|Guatavita|COLOMBIA (CO)|4.911214|-73.83989|GUAT|Guatavita|Colombia (CO)|4.937275218729681|-73.83315592214697
rio-hato|Río Hato|PANAMA (PA)|NULL|NULL|RIO-22|Río Hato|Panama (PA)|8.424997964283065|-80.13427132463937
palmas-bellas|Palmas Bellas|PANAMA (PA)|NULL|NULL|LGG4|As|Belgium (BE)|51.00631818923688|5.58309913670854
sinaloa-de-leyva|Sinaloa de Leyva|MEXICO (MX)|NULL|NULL|LMM2|Sinaloa|Mexico (MX)|25.81954608516999|-108.6312279582396
mayari|Mayarí|CUBA (CU)|NULL|NULL|MYRI|Mayari|Cuba (CU)|20.655863280791195|-75.67546496755836
nemocon|Nemocón|COLOMBIA (CO)|NULL|NULL|NEMC|Nemocon|Colombia (CO)|5.0666137554923125|-73.87543668557667
oruro|Oruro|BOLIVIA (BO)|-17.967299|-67.095856|ORUR|Oruro|Bolivia (BO)|-17.97|-67.12
oiba|Oiba|COLOMBIA (CO)|NULL|NULL|Oiba|Oiba|Colombia (CO)|6.265060907330678|-73.29891106749405
pitalito|Pitalito|COLOMBIA (CO)|1.819997|-76.12134|PITl|Pitalito|Colombia (CO)|1.8453639029998357|-76.04475635670782
concepcion-25753|Concepción|PARAGUAY (PY)|NULL|NULL|PJC1|Concepción|Paraguay (PY)|-23.405830521396297|-57.438790617458366
san-jose-de-chiquitos|San José de Chiquitos|BOLIVIA (BO)|NULL|NULL|QHI1|San José de Chiquitos|Bolivia (BO)|-17.843498717103543|-60.745304817342
quibdo|Quibdó|COLOMBIA (CO)|NULL|NULL|QUIB|Quibdo|Colombia (CO)|5.688194886665428|-76.65386205813967
resistencia|Resistencia|ARGENTINA (AR)|-27.451115|-58.98658|RES1|Resistencia|Argentina (AR)|-27.452698659853276|-58.98809958376239
rionegro|Rionegro|COLOMBIA (CO)|6.151333|-75.410095|RION|Rionegro|Colombia (CO)|6.156751860549761|-75.37390962998232
san-juan-de-los-remedios|San Juan de los Remedios|CUBA (CU)|NULL|NULL|RMDS|Remedios|Cuba (CU)|22.496095708740484|-79.54681741141248
santa-barbara-de-samana|Santa Bárbara de Samaná|DOMINICAN REPUBLIC (DO)|NULL|NULL|SAMA|Samaná|Dominican Republic (DO)|19.20628294857221|-69.33665755089909
tepoztlan|Tepoztlán|MEXICO (MX)|NULL|NULL|TPZT|Tepoztlan|Mexico (MX)|18.98045463961752|-99.09678850752188
san-pedro-de-quemes|San Pedro de Quemes|BOLIVIA (BO)|NULL|NULL|UYU1,00|San Pedro de Quemes|Bolivia (BO)|-21.0602093544435|-67.97512487439796
xilitla|Xilitla|MEXICO (MX)|21.386644|-98.9812|XLTL|Xilitla|Mexico (MX)|21.387436238045865|-98.99193331534767
ciudad-madero|Ciudad Madero|MEXICO (MX)|NULL|NULL|cm12|Ciudad Madero|Mexico (MX)|22.28021676888389|-97.831726225283
puyo|Puyo|ECUADOR (EC)|-1.458511|-77.992584|3VV-1|Puyo|Ecuador (EC)|-1.468208630703998|-78.00371791737675
aculco|Aculco|MEXICO (MX)|19.373745|-99.1043|ACU-1|Aculco|Mexico (MX)|20.095859890450882|-99.83165236237812
ayamonte|Ayamonte|SPAIN (ES)|37.270603|-7.383234|AMT-1|Ayamonte|Spain (ES)|37.2145602166316|-7.403603428500986
arteaga|Arteaga|MEXICO (MX)|25.341356|-100.64237|ART-1|Arteaga|Mexico (MX)|25.44650280912579|-100.84646892011237
santa-cruz-de-barahona|Santa Cruz de Barahona|DOMINICAN REPUBLIC (DO)|NULL|NULL|BAH-1|Barahona|Dominican Republic (DO)|18.22651441413494|-71.08140991578892
belen-de-escobar|Belén de Escobar|ARGENTINA (AR)|NULL|NULL|BEDE-1|Belén de Escobar|Argentina (AR)|-34.33951055719035|-58.77881386848974
callao|Callao|PERU (PE)|-12.0629|-77.149|CALLA|Callao |Peru (PE)|-12.050734201405987|-77.13712164676353
cienaga|Ciénaga|COLOMBIA (CO)|NULL|NULL|CIENG|Cienaga|Colombia (CO)|11.002275110597424|-74.2457687776154
calarca|Calarca|COLOMBIA (CO)|NULL|NULL|CLC-1|Calarca|Colombia (CO)|4.528923911631139|-75.64084229719019
coatepec|Coatepec|MEXICO (MX)|19.462683|-96.955246|COA-1|Coatepec|Mexico (MX)|19.45598682075908|-96.95941614987507
combarro|Combarro|SPAIN (ES)|42.4319|-8.70649|COMBA|Combarro|Spain (ES)|42.43255058738461|-8.706109841760139
cordoba|Córdoba|COLOMBIA (CO)|NULL|NULL|COR-6|Cordoba|Colombia (CO)|4.39151201254127|-75.68679176249424
el-escorial|El Escorial|SPAIN (ES)|40.5847|-4.1269|COR-E|Coria|Spain (ES)|39.98335578562117|-6.5358776841066515
copiapo|Copiapó|CHILE (CL)|NULL|NULL|CPO-1|Copiapó|Chile (CL)|-27.362689675916137|-70.32759839552455
oliva|Oliva|SPAIN (ES)|38.897697|-0.102647|CVA40|Oliva|Spain (ES)|38.92008730859437|-0.11930465698242189
floridablanca|Floridablanca|COLOMBIA (CO)|7.063173|-73.08583|FBC-1|Floridablanca|Colombia (CO)|7.064366844783507|-73.08672148415624
filandia|Filandia|COLOMBIA (CO)|4.669141|-75.675606|FIL-1|Filandia|Colombia (CO)|4.674625106087291|-75.65833380533259
girardot|Girardot|COLOMBIA (CO)|4.339422|-74.81033|GIR-6|Girardot|Colombia (CO)|4.304938923006702|-74.80234154234881
san-juan-de-giron|San Juan De Girón|COLOMBIA (CO)|NULL|NULL|Giron|San Juan de Girón|Colombia (CO)|7.073760925098227|-73.16878220134804
honda|Honda|COLOMBIA (CO)|5.2051|-74.737|Honda|Honda|Colombia (CO)|5.2104739|-74.7826082
ibiza|Ibiza|SPAIN (ES)|38.90884|1.43237|IBI-E|Ibi|Spain (ES)|38.62250583336396|-0.5726358611553337
ilo|Ilo|PERU (PE)|-17.6459|-71.3453|ILO-2|Ilo|Peru (PE)|-17.64|-71.34
ipiales|Ipiales|COLOMBIA (CO)|0.577059|-77.375854|IPI-1|Ipiales|Colombia (CO)|0.8267439696748511|-77.63909574110616
jala|Jala|MEXICO (MX)|21.110813|-104.433136|JAL-1|Jala|Mexico (MX)|21.103676081734633|-104.43668194504087
jardin|Jardín|COLOMBIA (CO)|NULL|NULL|JAR-6|Jardin|Colombia (CO)|5.598758362640979|-75.81924263755087
jerico|Jericó|COLOMBIA (CO)|NULL|NULL|JER-6|Jerico|Colombia (CO)|5.750732903213915|-75.74947053429513
la-macarena|La Macarena|COLOMBIA (CO)|NULL|NULL|LMC-2|La Macarena|Colombia (CO)|2.1938743611971177|-73.78330097371156
la-tebaida|La Tebaida|COLOMBIA (CO)|NULL|NULL|LTC-1|La Tebaida|Colombia (CO)|4.452150237868452|-75.79079049116405
las-tunas|Las Tunas|CUBA (CU)|NULL|NULL|LTN-2|Las Tunas|Cuba (CU)|20.96189823920902|-76.9563690233374
livingston|Livingston|GUATEMALA (GT)|15.753923|-89.03859|LVG-1|Livingston|Guatemala (GT)|15.826941788210277|-88.75771690625129
maipu|Maipú|ARGENTINA (AR)|NULL|NULL|MAI-6|Maipú|Argentina (AR)|-32.98039659738908|-68.78052101817036
moraira|Moraira|SPAIN (ES)|38.689026|0.132259|MRR-1|Moraira|Spain (ES)|38.688086206519245|0.13452829587848214
montenegro|Montenegro|COLOMBIA (CO)|4.522207|-75.81779|MTN-1|Montenegro|Colombia (CO)|4.565462898366519|-75.7507230556225
muros|Muros|SPAIN (ES)|42.7754|-9.05934|MUROS|Muros|Spain (ES)|42.77472381646973|-9.057568174406015
navacerrada|Navacerrada|SPAIN (ES)|40.7331|-4.02222|NAVAC|Navacerrada|Spain (ES)|40.7264623|-4.0218996
puerto-banus|Puerto Banús|SPAIN (ES)|NULL|NULL|PBN-1|Puerto Banús|Spain (ES)|36.486629265020454|-4.955661667183705
quimbaya|Quimbaya|COLOMBIA (CO)|4.6103|-75.79169|QUI-1|Quimbaya|Colombia (CO)|4.623240381972565|-75.76345362473701
roncesvalle|Roncesvalles|COLOMBIA (CO)|3.9931|-75.6092|RCL-1|Roncesvalles|Spain (ES)|43.00959589582868|-1.3198457644847963
rio-cuarto|Río Cuarto|ARGENTINA (AR)|NULL|NULL|RCU-1|Río Cuarto|Argentina (AR)|-33.136741022872414|-64.35839393874632
fraccion-el-refugio|Fracción el Refugio|MEXICO (MX)|NULL|NULL|REF-6|El Refugio|Mexico (MX)|32.45959539588473|-116.8312431703504
playas-de-rosarito|Playas de Rosarito|MEXICO (MX)|NULL|NULL|ROS-6|Rosarito|Mexico (MX)|32.36561070150606|-117.05564387743878
quesada|Quesada|GUATEMALA (GT)|NULL|NULL|SDA-1|Sada|Spain (ES)|43.3513610946315|-8.253707921711282
rodrigo|Ciudad Rodrigo|SPAIN (ES)|40.5969|-6.5225|SLM20|Ciudad Rodrigo|Spain (ES)|40.599401|-6.530716
sombrerete|Sombrerete|MEXICO (MX)|23.621231|-103.63561|SMBRT|Sombrerete|Mexico (MX)|23.635496513633683|-103.62944644417944
san-esteban|San Esteban|BELIZE (BZ)|NULL|NULL|STE55|San Esteban|Spain (ES)|41.49|1.87
tenjo|Tenjo|COLOMBIA (CO)|4.872039|-74.14501|TEN-6|Tenjo|Colombia (CO)|4.87246309709947|-74.14489987406962
tumaco|Tumaco|COLOMBIA (CO)|1.58387|-78.663765|TNC-1|Tumaco|Colombia (CO)|1.803919387846591|-78.77843435276836
villa-mercedes|Villa Mercedes|ARGENTINA (AR)|NULL|NULL|VLMRC|Villa Mercedes|Argentina (AR)|-33.67833508815163|-65.45859869134375
xicotepec|Xicotepec|MEXICO (MX)|20.326618|-97.902626|XCTPC|Xicotepec|Mexico (MX)|20.2813112|-97.9702712
apulo|Apulo|COLOMBIA (CO)|4.522309|-74.578384|apulo|Apulo|Colombia (CO)|4.520822846185112|-74.59407904850904
san-fernando-de-monte-cristi|San Fernando de Monte Cristi.|DOMINICAN REPUBLIC (DO)|NULL|NULL|mntcr|Monte Cristi|Dominican Republic (DO)|19.845687206268295|-71.64139052686377
nobsa|Nobsa|COLOMBIA (CO)|5.747331|-72.95604|nobsa|Nobsa|Colombia (CO)|5.7687043|-72.9418205
atocha|Atocha|BOLIVIA (BO)|NULL|NULL|ATO-22|Atocha|Bolivia (BO)|-20.933312668417585|-66.22064117627362
pena-de-bernal|Peña de Bernal|MEXICO (MX)|NULL|NULL|PBL-002|Peña de Bernal|Mexico (MX)|20.748194|-99.948611
buenavista-de-cuellar|Buenavista de Cuellar|MEXICO (MX)|NULL|NULL|BUEN-6|Buenavista|Mexico (MX)|23.662238637045917|-109.69882041397382
bojaca|Bojacá|COLOMBIA (CO)|NULL|NULL|Bojaca|Bojacá|Colombia (CO)|4.7357071|-74.3421054
nuevo-casas-grandes|Nuevo Casas Grandes|MEXICO (MX)|NULL|NULL|CAGR-1|Casas Grandes|Mexico (MX)|30.416992965578032|-107.90990533596693
caldera|Caldera|CHILE (CL)|-27.141506|-70.68246|CAL-22|Caldera|Chile (CL)|-27.053731377176565|-70.81625625081288
calvia|Calviá|SPAIN (ES)|NULL|NULL|CALV-6|Calviá|Spain (ES)|39.5652932707562|2.504557796435904
candelaria|Candelaria|MEXICO (MX)|18.05054|-90.93319|CAND-1|Candela|Mexico (MX)|26.866764029079434|-100.72462122418798
coban|Cobán|GUATEMALA (GT)|NULL|NULL|CBN-22|Cobán|Guatemala (GT)|15.47331849949633|-90.38100765180243
ciudad-tula|Ciudad Tula|MEXICO (MX)|NULL|NULL|CDTULA|Ciudad Tula|Mexico (MX)|22.997061343683228|-99.71238480124863
chiapa-de-corzo|Chiapa de Corzo|MEXICO (MX)|NULL|NULL|CHDC-1|Chiapa de Corzo|Mexico (MX)|16.70987221783784|-93.01588023883556
cobija|Cobija|BOLIVIA (BO)|-11.036361|-68.78563|COBI-6|Cobija|Bolivia (BO)|-11.03|-68.77
comodoro-rivadavia|Comodoro Rivadavia|ARGENTINA (AR)|NULL|NULL|CORI-1|Comodoro Rivadavia|Argentina (AR)|-45.86678607978206|-67.50010392791276
coroico|Coroico|BOLIVIA (BO)|-16.209442|-67.73281|CORO-1|Coroico|Bolivia (BO)|-16.19|-67.73
cosala|Cosalá|MEXICO (MX)|24.415487|-106.68632|COSA-1|Cosalá|Mexico (MX)|24.41382146489137|-106.68937305379029
creel|Creel|MEXICO (MX)|27.753008|-107.63434|CREE-1|Creel|Mexico (MX)|27.75247888592591|-107.63497734683791
cuitzeo-del-porvenir|Cuitzeo del Porvenir|MEXICO (MX)|NULL|NULL|CUIT-1|Cuitzeo|Mexico (MX)|19.970482898247553|-101.1387476827202
dolores-25634|Dolores|URUGUAY (UY)|NULL|NULL|DOLO-6|Dolores|Uruguay (UY)|-33.528981979588|-58.2168231771069
el-rosario|El Rosario|MEXICO (MX)|NULL|NULL|ELRO-1|El Rosario|Mexico (MX)|22.75060654949999|-105.37570337092089
formosa|Formosa|ARGENTINA (AR)|-26.19476|-58.21404|FORM-1|Formosa|Argentina (AR)|-26.18020926621226|-58.18174082999228
fray-bentos|Fray Bentos|URUGUAY (UY)|NULL|NULL|FRBE-1|Fray Bentos|Uruguay (UY)|-33.135661208132284|-58.29877115005124
guabito|Guabito|PANAMA (PA)|NULL|NULL|GUA123|Guabito|Panama (PA)|9.49460982|-82.611396
garzon|Garzón|COLOMBIA (CO)|NULL|NULL|Garzon|Garzón|Colombia (CO)|2.1976509775917066|-75.62735775308695
hanga-roa|Hanga Roa|CHILE (CL)|NULL|NULL|HARO-1|Hanga Roa|Chile (CL)|-27.150276845490335|-109.4282026669354
huamantla|Huamantla|MEXICO (MX)|19.34868|-97.918434|HUAM-1|Huamantla|Mexico (MX)|19.313608052472418|-97.92219855847078
juchitan-juchitan-de-zaragoza|Juchitán (Juchitán de Zaragoza)|MEXICO (MX)|NULL|NULL|JUDZ-1|Juchitán de Zaragoza|Mexico (MX)|16.441767431655535|-95.02099350860021
luque|Luque|PARAGUAY (PY)|-25.251978|-57.45063|LUQE-1|Luque|Paraguay (PY)|-25.252804294900827|-57.47611610007168
moyahua-de-estrada|Moyahua de Estrada|MEXICO (MX)|NULL|NULL|MOYA-6|Moya|Spain (ES)|28.110977362954273|-15.583235543331512
san-luis-rio-colorado|San Luis Río Colorado|MEXICO (MX)|NULL|NULL|SLS-002|San Luis|Colombia (CO)|12.530431209554436|-81.70965564816618
melgar|Melgar|COLOMBIA (CO)|4.2035|-74.6433|Melgar|Melgar|Colombia (CO)|4.2027815|-74.6530033
nicoya|Nicoya|COSTA RICA (CR)|10.118469|-85.50483|Nicoya|Nicoya|Costa Rica (CR)|10.147847709884857|-85.45350830368668
puerto-ayora|Puerto Ayora|ECUADOR (EC)|NULL|NULL|PAY-22|Puerto Ayora|Ecuador (EC)|-0.7439539530672334|-90.31831219448942
paysandu|Paysandú|URUGUAY (UY)|NULL|NULL|PAYS-1|Paysandú|Uruguay (UY)|-32.33938737404051|-58.05484966310004
pedasi|Pedasí|PANAMA (PA)|NULL|NULL|PED-22|Pedasí|Panama (PA)|7.5390354195317855|-80.02502415994081
punta-sal|Punta Sal|PERU (PE)|NULL|NULL|PUN-33|Punta Sal|Peru (PE)|-3.9964654890764097|-80.9740447998047
puerto-quijarro|Puerto Quijarro|BOLIVIA (BO)|NULL|NULL|PUQU-1|Puerto Quijarro|Bolivia (BO)|-19.004427872190732|-57.72460320335753
puerto-villamil|Puerto Villamil|ECUADOR (EC)|NULL|NULL|PUVI-1|Puerto Villamil|Ecuador (EC)|-0.9547291033932908|-90.96615240938374
retalhuleu|Retalhuleu|GUATEMALA (GT)|14.529981|-91.68435|RET-22|Retalhuleu|Guatemala (GT)|14.553271636521183|-91.683307710828
rivera|Rivera|URUGUAY (UY)|-31.071568|-55.656685|Rivera|Rivera|Uruguay (UY)|-30.93831311255844|-55.55609094244649
san-marcos-la-laguna|San Marcos La Laguna|GUATEMALA (GT)|NULL|NULL|SAA-22|San Marcos La Laguna|Guatemala (GT)|14.723617997043146|-91.25976364325315
salto|Salto|URUGUAY (UY)|-31.378193|-57.948532|SALT-1|Salto|Uruguay (UY)|-31.346540949933093|-57.89398568297935
san-juan-la-laguna|San Juan La Laguna|GUATEMALA (GT)|NULL|NULL|SAM-22|San Juan La Laguna|Guatemala (GT)|14.694626517081062|-91.28704948390101
sayulita|Sayulita|MEXICO (MX)|20.856325|-105.43668|SAYU-6|Sayulita|Mexico (MX)|20.8688187304557|-105.44000994176581
san-carlos|San Carlos|COSTA RICA (CR)|NULL|NULL|SCCR-1|San Carlos|Costa Rica (CR)|10.567807218449289|-84.46880257639877
taltal|Taltal|CHILE (CL)|-25.368431|-70.137665|TAT-22|Taltal|Chile (CL)|-25.266932865247025|-69.85835770590657
tecpan-guatemala|Tecpán Guatemala|GUATEMALA (GT)|NULL|NULL|TEC-22|Tecpán|Guatemala (GT)|14.76235253605482|-90.9919558683966
topolobampo|Topolobampo|MEXICO (MX)|25.610273|-109.08293|TOPO-1|Topolobampo|Mexico (MX)|25.600272050932702|-109.05247131648473
tota|Tota|COLOMBIA (CO)|NULL|NULL|TOTA-6|Tota|Colombia (CO)|5.5607816297559225|-72.98573685993789
vichayito|Vichayito|PERU (PE)|-4.142398|-81.09772|VIC-21|Vichayito|Peru (PE)|-4.144186314941365|-81.1075079691983
villa-tunari|Villa Tunari|BOLIVIA (BO)|NULL|NULL|VITU-1|Villa Tunari|Bolivia (BO)|-16.976819192341708|-65.42138176664905
zorritos|Zorritos|PERU (PE)|-3.68043|-80.68|ZOR-22|Zorritos|Peru (PE)|-3.617589124412154|-80.50781250000001
la-mesa|La Mesa|COLOMBIA (CO)|NULL|NULL|lamesa|La Mesa|Colombia (CO)|4.632309298537066|-74.4628054111597
ambato|Ambato|ECUADOR (EC)|-1.274578|-78.751144|ABT-002|Ambato|Ecuador (EC)|-1.241667|-78.619722
arauca|Arauca|COLOMBIA (CO)|6.791585|-70.47192|ARC-002|Arauca|Colombia (CO)|7.083333|-70.75
azogues|Azogues|ECUADOR (EC)|-2.624635|-78.748276|AZG-002|Azogues|Ecuador (EC)|-2.7365455582160507|-78.84619788643563
aguazul|Aguazul|COLOMBIA (CO)|5.124754|-72.54086|Aguazul|Aguazul|Colombia (CO)|5.1716985095767996|-72.55068893936668
apizaco|Apizaco|MEXICO (MX)|19.42352|-98.12709|Apizaco|Apizaco|Mexico (MX)|19.414184710200047|-98.13998660809774
riobamba|Riobamba|ECUADOR (EC)|-1.725905|-78.65271|BAMBA-6|Riobamba|Ecuador (EC)|-1.67239925270826|-78.64937601733371
boca-del-rio|Boca del RÍo|MEXICO (MX)|NULL|NULL|BCR-002|Boca del Río|Mexico (MX)|19.105556|-96.107778
buga|Buga|COLOMBIA (CO)|3.9005|-76.3021|BGA-002|Buga|Colombia (CO)|3.8997223058612605|-76.30098376391895
buenaventura|Buenaventura|COLOMBIA (CO)|3.624204|-77.12156|BVR-002|Buenaventura|Colombia (CO)|3.874231899683167|-77.06025164150867
boyaca|Boyacá|COLOMBIA (CO)|NULL|NULL|BYC-002|Boyacá|Colombia (CO)|5.454167|-73.361944
chanaral|Chañaral|CHILE (CL)|NULL|NULL|CHAN-22|Chañaral|Chile (CL)|-26.350767162516796|-70.6238788092479
cotacachi|Cotacachi|ECUADOR (EC)|0.29998|-78.26428|CHI-002|Cotacachi|Ecuador (EC)|0.3|-78.266667
camiri|Camiri|BOLIVIA (BO)|-20.032408|-63.526505|CMR-002|Camiri|Bolivia (BO)|-20.04307892887472|-63.51823387366477
copacabana|Copacabana|BOLIVIA (BO)|-16.166046|-69.08633|CPA-002|Copacabana|Bolivia (BO)|-16.166667|-69.083333
cayambe|Cayambe|ECUADOR (EC)|0.002176|-78.0648|CYB-002|Cayambe|Ecuador (EC)|0.04128403935986569|-78.14162735324358
cuautla-cuautla-de-morelos|Cuautla (Cuautla de Morelos)|MEXICO (MX)|NULL|NULL|Cuautla|Cuautla de Morelos|Mexico (MX)|18.813466195921066|-98.95342102058676
valle-de-guadalupe|Valle de Guadalupe|MEXICO (MX)|NULL|NULL|ESE-467|Valle de Guadalupe|Mexico (MX)|32.09406855554526|-116.57088067212578
lo-espejo|Lo Espejo|CHILE (CL)|NULL|NULL|ESPEJ-6|Espejo|Spain (ES)|37.67897074576625|-4.554066488109555
el-espinal|El Espinal|PANAMA (PA)|NULL|NULL|ESPINAL|Espinal|Spain (ES)|42.97892641251366|-1.3688261221928997
fresnillo|Fresnillo|MEXICO (MX)|23.174759|-102.86789|FSL-002|Fresnillo|Mexico (MX)|NULL|-102.8675
guano|Guano|ECUADOR (EC)|-1.537453|-78.67187|GNO-002|Guano|Ecuador (EC)|-1.6032982952750814|-78.64273206712083
guaranda|Guaranda|ECUADOR (EC)|-1.415639|-79.047714|GRA-002|Guaranda|Ecuador (EC)|-1.6|-79.0
guasave|Guasave|MEXICO (MX)|25.640987|-108.60521|GUASA-6|Guasave|Mexico (MX)|25.57400676537023|-108.46711113612648
san-jose-de-guaviare|San José De Guaviare|COLOMBIA (CO)|NULL|NULL|GVR-002|Guaviare|Colombia (CO)|2.566667|-72.633333
ibarra|Ibarra|ECUADOR (EC)|0.363453|-78.12413|IBR-002|Ibarra|Ecuador (EC)|0.3335787794633376|-78.11429838612845
san-jose-iturbide|San José Iturbide|MEXICO (MX)|NULL|NULL|ITB-002|Iturbide|Mexico (MX)|24.725278|-99.9
jarabacoa|Jarabacoa|DOMINICAN REPUBLIC (DO)|19.086012|-70.720276|JBC-002|Jarabacoa|Dominican Republic (DO)|19.118942416035978|-70.64221291672095
jiquilpan-de-juarez|Jiquilpan de Juárez|MEXICO (MX)|NULL|NULL|JQP-002|Jiquilpan|Mexico (MX)|19.991722|-102.720972
jerez-de-garcia-salinas|Jerez de García Salinas|MEXICO (MX)|NULL|NULL|JRZ-002|Jerez|Mexico (MX)|22.644744617504287|-102.98895096688916
sorata|Sorata|BOLIVIA (BO)|-15.792257|-68.601166|LPB-SOR|Sorata|Bolivia (BO)|-15.72743505314969|-68.61886743747016
latacunga|Latacunga|ECUADOR (EC)|-0.782489|-78.58245|LTA-002|Latacunga|Ecuador (EC)|-0.931939|-78.616078
machala|Machala|ECUADOR (EC)|-3.249661|-79.95928|MCL-002|Machala|Ecuador (EC)|-3.2534367566956917|-79.96522798640328
macas|Macas|ECUADOR (EC)|-2.355969|-78.02202|MCS-002|Macas|Ecuador (EC)|-2.3037639805703236|-78.11749687148402
malinalco|Malinalco|MEXICO (MX)|18.881918|-99.48564|MLO-002|Malinalco|Mexico (MX)|18.948333|-99.494722
montemorelos|Montemorelos|MEXICO (MX)|25.126308|-99.80838|MMS-002|Montemorelos|Mexico (MX)|25.187219|-99.826669
mapimi|Mapimí|MEXICO (MX)|NULL|NULL|MPI-002|Mapimí|Mexico (MX)|25.833056|-103.847778
montecristi|Montecristi|ECUADOR (EC)|-1.054488|-80.65385|MTC-002|Montecristi|Ecuador (EC)|-1.0497837304159958|-80.66034094458573
nochistlan-de-mejia|Nochistlán de Mejía|MEXICO (MX)|NULL|NULL|NCT-002|Nochistlán|Mexico (MX)|21.3606|NULL
las-palmitas|Las Palmitas|PANAMA (PA)|NULL|NULL|PALMI-6|Palmi|Italy (IT)|38.358155929043704|15.851740704568499
panajachel|Panajachel|GUATEMALA (GT)|14.737735|-91.15695|PANAJ-6|Panajachel|Guatemala (GT)|14.745288834730431|-91.15242292379963
pococi|Pococí|COSTA RICA (CR)|NULL|NULL|PCI-002|Pococi|Costa Rica (CR)|10.57661643720327|-83.55056722642037
pedernales|Pedernales|DOMINICAN REPUBLIC (DO)|18.061556|-71.60084|PDN-001|Pedernales|Dominican Republic (DO)|18.05361774680732|-71.74324548206273
el-penol|El Peñol|COLOMBIA (CO)|NULL|NULL|PNL-002|El Peñol|Colombia (CO)|6.224829450206585|-75.24473423356072
ocozocoautla-de-espinosa|Ocozocoautla de Espinosa|MEXICO (MX)|NULL|NULL|PNS-002|Pinos|Mexico (MX)|22.2983|NULL
papantla-de-olarte|Papantla de Olarte|MEXICO (MX)|NULL|NULL|PPT-002|Papantla|Mexico (MX)|20.448889|-97.324444
parras-de-la-fuente|Parras de la Fuente|MEXICO (MX)|NULL|NULL|PRF-002|Parras|Mexico (MX)|25.436944|-102.183611
patate|Patate|ECUADOR (EC)|-1.278934|-78.493515|-PTE2,00|Patate|Ecuador (EC)|-1.3109898894151826|-78.50630354867687
rurrenabaque|Rurrenabaque|BOLIVIA (BO)|-14.432679|-67.51094|RRB-002|Rurrenabaque|Bolivia (BO)|-14.442222|-67.528333
robore|Roboré|BOLIVIA (BO)|NULL|NULL|Robore1|Robore|Bolivia (BO)|-18.329378603120887|-59.74457392218716
sucre|Sucre|COLOMBIA (CO)|NULL|NULL|SCE-002|Sucre|Colombia (CO)|9.3|-75.4
las-salinas|Las Salinas|DOMINICAN REPUBLIC (DO)|NULL|NULL|SLN-002|Las Salinas|Dominican Republic (DO)|18.27849084436859|-71.31577633768721
sasaima|Sasaima|COLOMBIA (CO)|4.928911|-74.42797|Sasaima|Sasaima|Colombia (CO)|4.964688723428921|-74.4342787337878
olavarria|Olavarría|ARGENTINA (AR)|NULL|NULL|TDL-369|Olavarría|Argentina (AR)|-36.89497135585843|-60.318560223210866
tahua|Tahua|BOLIVIA (BO)|NULL|NULL|THA-002|Tahua|Bolivia (BO)|-19.890833|-67.694167
tupiza|Tupiza|BOLIVIA (BO)|-21.450335|-65.71739|TJA-495|Tupiza|Bolivia (BO)|-21.42393120980583|-65.71351013164781
tulcan|Tulcán|ECUADOR (EC)|NULL|NULL|TLN-002|Tulcan|Ecuador (EC)|0.811667|-77.718611
tena|Tena|ECUADOR (EC)|-1.042977|-77.83642|TNA-002|Tena|Ecuador (EC)|NULL|-77.8159
atuntaqui|Atuntaqui|ECUADOR (EC)|0.344153|-78.221756|TQI-002|Atuntaqui|Ecuador (EC)|0.331667|-78.218889
trinidad-25917|Trinidad|BOLIVIA (BO)|NULL|NULL|TRINI-6|Trinidad|Bolivia (BO)|-14.83|-64.9
viedma|Viedma|ARGENTINA (AR)|-40.863655|-63.056507|VDM-002|Viedma|Argentina (AR)|-40.8|-63.0
villazon|Villazón|BOLIVIA (BO)|NULL|NULL|VILL-22|Villazón|Bolivia (BO)|-22.06575136086822|-65.60082313826186
yacuiba|Yacuiba|BOLIVIA (BO)|NULL|NULL|YAC-001|Yacuiba|Bolivia (BO)|-22.010186074329184|-63.66355561493461
yumbo|Yumbo|COLOMBIA (CO)|3.596391|-76.51141|YBO-002|Yumbo|Colombia (CO)|3.5828503177796023|-76.49416503785594
zamora|Zamora|ECUADOR (EC)|-4.157505|-79.00206|ZRA-002|Zamora|Ecuador (EC)|-4.069167|-78.956667
zaruma|Zaruma|ECUADOR (EC)|-3.540301|-79.50982|ZRM-002|Zaruma|Ecuador (EC)|-3.6922582808904707|-79.6095116608044
fuquene|Fúquene|COLOMBIA (CO)|NULL|NULL|fuquene|Fúquene|Colombia (CO)|5.4039164|-73.7977606
riberalta|Riberalta|BOLIVIA (BO)|-11.032274|-66.03182|rib-111|Riberalta|Bolivia (BO)|-11.004816277726079|-66.06352542409778
villeta|Villeta|COLOMBIA (CO)|5.000199|-74.504974|villeta|Villeta|Colombia (CO)|5.0114380770472025|-74.4706334520894
quetzaltenango|Quetzaltenango|GUATEMALA (GT)|14.834272|-91.51838|AQB-0112|Quetzaltenango|Guatemala (GT)|14.846175415481355|-91.5166820035274
alausi|Alausí|ECUADOR (EC)|NULL|NULL|Alaus123|Alausí|Ecuador (EC)|-2.198607|-78.8467579
anapoima|Anapoima|COLOMBIA (CO)|4.559623|-74.52514|Anapoima|Anapoima|Colombia (CO)|4.550612888874724|-74.53601632205594
corrales|Corrales|COLOMBIA (CO)|NULL|NULL|Corrales|Corrales|Colombia (CO)|5.829234571315169|-72.84501041582091
monterrico|Monterrico|GUATEMALA (GT)|13.910703|-90.55724|GUA-8987|Monterrico|Guatemala (GT)|13.929704656238542|-90.67902452208419
la-dorada|La Dorada|COLOMBIA (CO)|NULL|NULL|LaDorada|La Dorada|Colombia (CO)|5.456292513943211|-74.66417813198372
morelos|Morelos|MEXICO (MX)|NULL|NULL|MORELO-6|Morelos |Mexico (MX)|18.751159505486527|-99.08708008410957
puerto-aventuras|Puerto Aventuras|MEXICO (MX)|NULL|NULL|PUERTOAV|Puerto Aventuras|Mexico (MX)|20.507007482035377|-87.23108404414633
pajarito|Pajarito|COLOMBIA (CO)|NULL|NULL|Pajarito|Pajarito|Colombia (CO)|5.2933094|-72.7034427
tibasosa|Tibasosa|COLOMBIA (CO)|5.717748|-73.02978|Tibasosa|Tibasosa|Colombia (CO)|5.7466233|-73.002822
carmelo|Carmelo|URUGUAY (UY)|-33.972305|-58.272446|CARMELO-6|Carmelo|Uruguay (UY)|-33.99660909829362|-58.28518572662772
cartago|Cartago|COSTA RICA (CR)|9.85935|-83.92349|CARTAGO-6|Cartago|Costa Rica (CR)|9.874991964656672|-83.90952449932
chinchina|Chinchiná|COLOMBIA (CO)|NULL|NULL|Chinchina|Chinchiná|Colombia (CO)|4.98394024461669|-75.60547299924015
cuetzalan|Cuetzalan|MEXICO (MX)|NULL|NULL|Cuetzalan|Cuetzalan|Mexico (MX)|20.018538285980313|-97.5215479862487
magdalena-de-kino|Magdalena de Kino|MEXICO (MX)|NULL|NULL|MDEKINO-6|Magdalena de Kino|Mexico (MX)|30.62775393316406|-110.96138562673626
nueva-palmira|Nueva Palmira|URUGUAY (UY)|NULL|NULL|PALMIRA-6|Nueva Palmira|Uruguay (UY)|-33.87051348067145|-58.406989317248076
ramon-santana|Ramón Santana|DOMINICAN REPUBLIC (DO)|NULL|NULL|SANTANA-6|Ramón Santana|Dominican Republic (DO)|18.543870120731853|-69.18016526362472
samaipata|Samaipata|BOLIVIA (BO)|-18.17989|-63.866795|Samaipata|Samaipata|Bolivia (BO)|-18.18|-63.88
santa-rosa|Santa Rosa|ARGENTINA (AR)|NULL|NULL|SantaRosa|Santa Rosa|Argentina (AR)|-36.60438296637458|-64.29137425030241
santiago-del-estero|Santiago del Estero|ARGENTINA (AR)|NULL|NULL|SantiagoE|Santiago del Estero|Argentina (AR)|-27.548293147076812|-64.28131367104928
tocancipa|Tocancipá|COLOMBIA (CO)|NULL|NULL|Tocancipa|Tocancipá|Colombia (CO)|4.966328753624609|-73.91123989431587
san-francisco-de-campeche|San Francisco de Campeche|MEXICO (MX)|NULL|NULL|CAMPECHE-6|Campeche |Mexico (MX)|19.839641652082335|-90.52069512428935
casablanca|Casablanca|CHILE (CL)|-33.319|-71.4076|Casablanca|Casablanca|Chile (CL)|-33.31407743437401|-71.41658839478211
facatativa|Facatativá|COLOMBIA (CO)|NULL|NULL|Facatativa|Facatativá|Colombia (CO)|4.810459311935844|-74.3540261482853
guayacanes|Guayacanes|DOMINICAN REPUBLIC (DO)|NULL|NULL|Guayacanes|Guayacanes|Dominican Republic (DO)|18.423137|-69.457768
san-gregorio-de-polanco|San Gregorio de Polanco|URUGUAY (UY)|NULL|NULL|SANGREGO-6|San Gregorio de Polanco|Uruguay (UY)|-32.616090689790255|-55.83466345258441
santa-lucia-del-camino|Santa Lucia del Camino|MEXICO (MX)|NULL|NULL|SantaLucia|Santa Lucia|Mexico (MX)|19.75|-98.98
campoalegre|Campoalegre|COLOMBIA (CO)|2.653074|-75.3172|Campoalegre|Campoalegre|Colombia (CO)|2.6857171608491655|-75.3262624401992
maldonado|Maldonado|URUGUAY (UY)|-34.819622|-54.9802|MALDONADO-6|Maldonado|Uruguay (UY)|-34.9069385641241|-54.95746319690849
piriapolis|Piriápolis|URUGUAY (UY)|NULL|NULL|PIRIPOLIS-6|Piriápolis|Uruguay (UY)|-34.86853295116371|-55.27246915198579
san-juan-bautista-tuxtepec|San Juan Bautista Tuxtepec|MEXICO (MX)|NULL|NULL|SJBTuxtepec|San Juan Bautista Tuxtepec|Mexico (MX)|18.08848786253968|-96.12202399831055
sutamarchan|Sutamarchán|COLOMBIA (CO)|NULL|NULL|Sutamarchan|Sutamarchán|Colombia (CO)|5.621363312594909|-73.62052530736513
tlaquepaque|Tlaquepaque|MEXICO (MX)|20.584131|-103.351234|Tlaquepaque|Tlaquepaque|Mexico (MX)|20.616667|-103.316667
chiquinquira|Chiquinquirá|COLOMBIA (CO)|NULL|NULL|Chiquinquira|Chiquinquirá|Colombia (CO)|5.619170512925606|-73.81655684767317
ciudad-valles|Ciudad Valles|MEXICO (MX)|NULL|NULL|CiudadValles|Ciudad Valles|Mexico (MX)|21.993880169204672|-99.01490686778934
rafael-freyre|Rafael Freyre|CUBA (CU)|NULL|NULL|RafaelFreyre|Rafael Freyre|Cuba (CU)|21.028199427940947|-75.99687242738263
san-antonio|San Antonio|CHILE (CL)|NULL|NULL|sanantoniocl|San Antonio|Chile (CL)|-33.59197411890201|-71.6166435466733
zamora-de-hidalgo|Zamora de Hidalgo|MEXICO (MX)|NULL|NULL|ZamoradeHidalgo|Zamora de hidalgo|Mexico (MX)|19.980438584122965|-102.28367238913783
santa-rosa-de-cabal|Santa Rosa De Cabal|COLOMBIA (CO)|NULL|NULL|SantaRosadecabal|Santa Rosa de Cabal|Colombia (CO)|4.884995|-75.639019
